{
"type": "FeatureCollection",
"crs": { "type": "name", "properties": { "name": "urn:ogc:def:crs:OGC:1.3:CRS84" } },
"features": [
{ "type": "Feature", "properties": { "Number": 1, "Name": "Fernando Pacheco", "Nat": "Espagne", "Pos": "G", "Height": 1.87, "Weight": 81, "Date_of_Birth": "18-05-92", "Birth_Place": "Badajoz", "Previous_Club": "Real Madrid", "Current_Club": "Deportivo Alavés", "Coordinate": "38.878206 -6.970157", "Latitude": 38.878206, "Longitude": -6.970157, "Country": "Spain" }, "geometry": { "type": "Point", "coordinates": [ -6.970157, 38.878206 ] } },
{ "type": "Feature", "properties": { "Number": 2, "Name": "Rodrigo Ely", "Nat": "Brésil", "Pos": "D", "Height": 1.88, "Weight": 82, "Date_of_Birth": "03-11-93", "Birth_Place": "Lajeado", "Previous_Club": "Milan", "Current_Club": "Deportivo Alavés", "Coordinate": "-81.419718", "Latitude": -29.456321, "Longitude": -51.963397, "Country": "Spain" }, "geometry": { "type": "Point", "coordinates": [ -51.963397, -29.456321 ] } },
{ "type": "Feature", "properties": { "Number": 3, "Name": "Raúl", "Nat": "Espagne", "Pos": "D", "Height": 1.75, "Weight": 72, "Date_of_Birth": "30-11-89", "Birth_Place": "La Coruña", "Previous_Club": "Almería", "Current_Club": "Deportivo Alavés", "Coordinate": "43.371209 -8.395877", "Latitude": 43.371209, "Longitude": -8.395877, "Country": "Spain" }, "geometry": { "type": "Point", "coordinates": [ -8.395877, 43.371209 ] } },
{ "type": "Feature", "properties": { "Number": 4, "Name": "Alexis", "Nat": "Espagne", "Pos": "D", "Height": 1.83, "Weight": 75, "Date_of_Birth": "04-08-85", "Birth_Place": "Málaga", "Previous_Club": "Beşiktaş", "Current_Club": "Deportivo Alavés", "Coordinate": "36.721086 -4.422002", "Latitude": 36.721086, "Longitude": -4.422002, "Country": "Spain" }, "geometry": { "type": "Point", "coordinates": [ -4.422002, 36.721086 ] } },
{ "type": "Feature", "properties": { "Number": 5, "Name": "Víctor Laguardia", "Nat": "Espagne", "Pos": "D", "Height": 1.85, "Weight": 75, "Date_of_Birth": "05-11-89", "Birth_Place": "Zaragoza", "Previous_Club": "Zaragoza", "Current_Club": "Deportivo Alavés", "Coordinate": "41.652134 -0.880943", "Latitude": 41.652134, "Longitude": -0.880943, "Country": "Spain" }, "geometry": { "type": "Point", "coordinates": [ -0.880943, 41.652134 ] } },
{ "type": "Feature", "properties": { "Number": 6, "Name": "Marcos Llorente", "Nat": "Espagne", "Pos": "M", "Height": 1.82, "Weight": 65, "Date_of_Birth": "30-01-95", "Birth_Place": "Madrid", "Previous_Club": "Real Madrid B", "Current_Club": "Deportivo Alavés", "Coordinate": "40.416705 -3.703582", "Latitude": 40.416705, "Longitude": -3.703582, "Country": "Spain" }, "geometry": { "type": "Point", "coordinates": [ -3.703582, 40.416705 ] } },
{ "type": "Feature", "properties": { "Number": 7, "Name": "Rubén Sobrino", "Nat": "Espagne", "Pos": "F", "Height": 1.85, "Weight": 73, "Date_of_Birth": "01-06-92", "Birth_Place": "Daimiel", "Previous_Club": "Manchester C", "Current_Club": "Deportivo Alavés", "Coordinate": "39.072196 -3.614361", "Latitude": 39.072196, "Longitude": -3.614361, "Country": "Spain" }, "geometry": { "type": "Point", "coordinates": [ -3.614361, 39.072196 ] } },
{ "type": "Feature", "properties": { "Number": 8, "Name": "Víctor Camarasa", "Nat": "Espagne", "Pos": "M", "Height": 1.83, "Weight": 76, "Date_of_Birth": "28-05-94", "Birth_Place": "Meliana", "Previous_Club": "Levante", "Current_Club": "Deportivo Alavés", "Coordinate": "39.528475 -0.348861", "Latitude": 39.528475, "Longitude": -0.348861, "Country": "Spain" }, "geometry": { "type": "Point", "coordinates": [ -0.348861, 39.528475 ] } },
{ "type": "Feature", "properties": { "Number": 9, "Name": "Christian Santos", "Nat": "Venezuela", "Pos": "F", "Height": 1.84, "Weight": 70, "Date_of_Birth": "24-03-88", "Birth_Place": "Puerto Orsaz", "Previous_Club": "NEC Nijmegen", "Current_Club": "Deportivo Alavés", "Coordinate": "39.78373 -100.445882", "Latitude": 39.78373, "Longitude": -100.445882, "Country": "Spain" }, "geometry": { "type": "Point", "coordinates": [ -100.445882, 39.78373 ] } },
{ "type": "Feature", "properties": { "Number": 10, "Name": "Óscar Romero", "Nat": "Paraguay", "Pos": "M", "Height": 1.76, "Weight": 73, "Date_of_Birth": "04-07-92", "Birth_Place": "Fernando de la Mora", "Previous_Club": "Shanghai Greenland", "Current_Club": "Deportivo Alavés", "Coordinate": "-82.87824", "Latitude": -25.326765, "Longitude": -57.551475, "Country": "Spain" }, "geometry": { "type": "Point", "coordinates": [ -57.551475, -25.326765 ] } },
{ "type": "Feature", "properties": { "Number": 11, "Name": "Ibai Gómez", "Nat": "Espagne", "Pos": "F", "Height": 1.79, "Weight": 73, "Date_of_Birth": "11-11-89", "Birth_Place": "Bilbao", "Previous_Club": "Athletic Bilbao", "Current_Club": "Deportivo Alavés", "Coordinate": "43.262964 -2.934948", "Latitude": 43.262964, "Longitude": -2.934948, "Country": "Spain" }, "geometry": { "type": "Point", "coordinates": [ -2.934948, 43.262964 ] } },
{ "type": "Feature", "properties": { "Number": 13, "Name": "Adrián Ortolà", "Nat": "Espagne", "Pos": "G", "Height": 1.82, "Weight": 70, "Date_of_Birth": "20-08-93", "Birth_Place": "Xàbia", "Previous_Club": "Barcelona B", "Current_Club": "Deportivo Alavés", "Coordinate": "38.767298 0.163522", "Latitude": 38.767298, "Longitude": 0.163522, "Country": "Spain" }, "geometry": { "type": "Point", "coordinates": [ 0.163522, 38.767298 ] } },
{ "type": "Feature", "properties": { "Number": 15, "Name": "Théo Hernández", "Nat": "France", "Pos": "D", "Height": 1.85, "Weight": 78, "Date_of_Birth": "06-10-97", "Birth_Place": "Marseille", "Previous_Club": "Atlético Madrid B", "Current_Club": "Deportivo Alavés", "Coordinate": "43.296174 5.369953", "Latitude": 43.296174, "Longitude": 5.369953, "Country": "Spain" }, "geometry": { "type": "Point", "coordinates": [ 5.369953, 43.296174 ] } },
{ "type": "Feature", "properties": { "Number": 16, "Name": "Daniel Torres", "Nat": "Colombie", "Pos": "M", "Height": 1.83, "Weight": 80, "Date_of_Birth": "15-11-89", "Birth_Place": "Caquezá", "Previous_Club": "Independiente Medellín", "Current_Club": "Deportivo Alavés", "Coordinate": "4.397746 -73.945005", "Latitude": 4.397746, "Longitude": -73.945005, "Country": "Spain" }, "geometry": { "type": "Point", "coordinates": [ -73.945005, 4.397746 ] } },
{ "type": "Feature", "properties": { "Number": 17, "Name": "Edgar", "Nat": "Espagne", "Pos": "M", "Height": 1.85, "Weight": 80, "Date_of_Birth": "30-04-90", "Birth_Place": "Arafo", "Previous_Club": "Granada", "Current_Club": "Deportivo Alavés", "Coordinate": "28.340445 -16.417329", "Latitude": 28.340445, "Longitude": -16.417329, "Country": "Spain" }, "geometry": { "type": "Point", "coordinates": [ -16.417329, 28.340445 ] } },
{ "type": "Feature", "properties": { "Number": 18, "Name": "Gaizka Toquero", "Nat": "Espagne", "Pos": "F", "Height": 1.82, "Weight": 72, "Date_of_Birth": "09-08-84", "Birth_Place": "Vitoria-Gasteiz", "Previous_Club": "Athletic Bilbao", "Current_Club": "Deportivo Alavés", "Coordinate": "42.846453 -2.67241", "Latitude": 42.846453, "Longitude": -2.67241, "Country": "Spain" }, "geometry": { "type": "Point", "coordinates": [ -2.67241, 42.846453 ] } },
{ "type": "Feature", "properties": { "Number": 19, "Name": "Manu García", "Nat": "Espagne", "Pos": "M", "Height": 1.82, "Weight": 74, "Date_of_Birth": "26-04-86", "Birth_Place": "Vitoria-Gasteiz", "Previous_Club": "Logroñés", "Current_Club": "Deportivo Alavés", "Coordinate": "42.846453 -2.67241", "Latitude": 42.846453, "Longitude": -2.67241, "Country": "Spain" }, "geometry": { "type": "Point", "coordinates": [ -2.67241, 42.846453 ] } },
{ "type": "Feature", "properties": { "Number": 20, "Name": "Deyverson", "Nat": "Brésil", "Pos": "F", "Height": 1.89, "Weight": 82, "Date_of_Birth": "08-05-91", "Birth_Place": "Santa Margarida", "Previous_Club": "Levante", "Current_Club": "Deportivo Alavés", "Coordinate": "-62.633982", "Latitude": -20.38177, "Longitude": -42.252212, "Country": "Spain" }, "geometry": { "type": "Point", "coordinates": [ -42.252212, -20.38177 ] } },
{ "type": "Feature", "properties": { "Number": 21, "Name": "Kiko Femenía", "Nat": "Espagne", "Pos": "M", "Height": 1.74, "Weight": 61, "Date_of_Birth": "02-02-91", "Birth_Place": "Sanet y Negrals", "Previous_Club": "Alcorcón", "Current_Club": "Deportivo Alavés", "Coordinate": "38.81512 -0.028519", "Latitude": 38.81512, "Longitude": -0.028519, "Country": "Spain" }, "geometry": { "type": "Point", "coordinates": [ -0.028519, 38.81512 ] } },
{ "type": "Feature", "properties": { "Number": 22, "Name": "Carlos Vigaray", "Nat": "Espagne", "Pos": "D", "Height": 1.82, "Weight": 70, "Date_of_Birth": "07-09-94", "Birth_Place": "Leganés", "Previous_Club": "Getafe", "Current_Club": "Deportivo Alavés", "Coordinate": "40.328194 -3.76527", "Latitude": 40.328194, "Longitude": -3.76527, "Country": "Spain" }, "geometry": { "type": "Point", "coordinates": [ -3.76527, 40.328194 ] } },
{ "type": "Feature", "properties": { "Number": 23, "Name": "Nenad Krstičić", "Nat": "Serbie", "Pos": "M", "Height": 1.82, "Weight": 75, "Date_of_Birth": "03-07-90", "Birth_Place": "Belgrade", "Previous_Club": "Sampdoria", "Current_Club": "Deportivo Alavés", "Coordinate": "44.817879 20.456809", "Latitude": 44.817879, "Longitude": 20.456809, "Country": "Spain" }, "geometry": { "type": "Point", "coordinates": [ 20.456809, 44.817879 ] } },
{ "type": "Feature", "properties": { "Number": 24, "Name": "Zouhair Feddal", "Nat": "Maroc", "Pos": "D", "Height": 1.91, "Weight": 78, "Date_of_Birth": "01-01-89", "Birth_Place": "Tétouan", "Previous_Club": "Levante", "Current_Club": "Deportivo Alavés", "Coordinate": "35.57414 -5.365256", "Latitude": 35.57414, "Longitude": -5.365256, "Country": "Spain" }, "geometry": { "type": "Point", "coordinates": [ -5.365256, 35.57414 ] } },
{ "type": "Feature", "properties": { "Number": 25, "Name": "Aleksandar Katai", "Nat": "Serbie", "Pos": "F", "Height": 1.77, "Weight": 70, "Date_of_Birth": "06-02-91", "Birth_Place": "Novi Sad", "Previous_Club": "Crvena Zvezda", "Current_Club": "Deportivo Alavés", "Coordinate": "45.255105 19.845081", "Latitude": 45.255105, "Longitude": 19.845081, "Country": "Spain" }, "geometry": { "type": "Point", "coordinates": [ 19.845081, 45.255105 ] } },
{ "type": "Feature", "properties": { "Number": 27, "Name": "Einar Galilea", "Nat": "Espagne", "Pos": "D", "Height": 1.82, "Weight": 73, "Date_of_Birth": "22-05-95", "Birth_Place": "Vitoria-Gasteiz", "Previous_Club": "Alavés B", "Current_Club": "Deportivo Alavés", "Coordinate": "42.846453 -2.67241", "Latitude": 42.846453, "Longitude": -2.67241, "Country": "Spain" }, "geometry": { "type": "Point", "coordinates": [ -2.67241, 42.846453 ] } },
{ "type": "Feature", "properties": { "Number": 28, "Name": "Dani Iglesias", "Nat": "Espagne", "Pos": "F", "Height": 1.78, "Weight": 70, "Date_of_Birth": "18-08-95", "Birth_Place": "Santiago de Compostela", "Previous_Club": "Deportivo La Coruña B", "Current_Club": "Deportivo Alavés", "Coordinate": "42.880422 -8.545861", "Latitude": 42.880422, "Longitude": -8.545861, "Country": "Spain" }, "geometry": { "type": "Point", "coordinates": [ -8.545861, 42.880422 ] } },
{ "type": "Feature", "properties": { "Number": 29, "Name": "Asier Benito", "Nat": "Espagne", "Pos": "F", "Height": null, "Weight": null, "Date_of_Birth": "11-02-95", "Birth_Place": "Amurrio", "Previous_Club": "Alavés B", "Current_Club": "Deportivo Alavés", "Coordinate": "43.052507 -3.000896", "Latitude": 43.052507, "Longitude": -3.000896, "Country": "Spain" }, "geometry": { "type": "Point", "coordinates": [ -3.000896, 43.052507 ] } },
{ "type": "Feature", "properties": { "Number": 30, "Name": "Juan García", "Nat": "Espagne", "Pos": "D", "Height": null, "Weight": null, "Date_of_Birth": "10-07-98", "Birth_Place": "Espagne", "Previous_Club": "Alavés B", "Current_Club": "Deportivo Alavés", "Coordinate": "40.002803 -4.003104", "Latitude": 40.002803, "Longitude": -4.003104, "Country": "Spain" }, "geometry": { "type": "Point", "coordinates": [ -4.003104, 40.002803 ] } },
{ "type": "Feature", "properties": { "Number": 31, "Name": "Ioritz Landeta", "Nat": "Espagne", "Pos": "G", "Height": null, "Weight": null, "Date_of_Birth": "10-10-95", "Birth_Place": "Espagne", "Previous_Club": "Alavés B", "Current_Club": "Deportivo Alavés", "Coordinate": "40.002803 -4.003104", "Latitude": 40.002803, "Longitude": -4.003104, "Country": "Spain" }, "geometry": { "type": "Point", "coordinates": [ -4.003104, 40.002803 ] } },
{ "type": "Feature", "properties": { "Number": 37, "Name": "Martín Agirregabiria", "Nat": "Espagne", "Pos": "D", "Height": null, "Weight": null, "Date_of_Birth": "10-05-96", "Birth_Place": "Vitoria-Gasteiz", "Previous_Club": "Alavés B", "Current_Club": "Deportivo Alavés", "Coordinate": "42.846453 -2.67241", "Latitude": 42.846453, "Longitude": -2.67241, "Country": "Spain" }, "geometry": { "type": "Point", "coordinates": [ -2.67241, 42.846453 ] } },
{ "type": "Feature", "properties": { "Number": 1, "Name": "Gorka Iraizoz", "Nat": "Espagne", "Pos": "G", "Height": 1.91, "Weight": 81, "Date_of_Birth": "06-03-81", "Birth_Place": "Pamplona", "Previous_Club": "Espanyol", "Current_Club": "Athletic Club de Bilbao", "Coordinate": "42.81855 -1.644416", "Latitude": 42.81855, "Longitude": -1.644416, "Country": "Spain" }, "geometry": { "type": "Point", "coordinates": [ -1.644416, 42.81855 ] } },
{ "type": "Feature", "properties": { "Number": 2, "Name": "Eneko Bóveda", "Nat": "Espagne", "Pos": "D", "Height": 1.8, "Weight": 77, "Date_of_Birth": "14-12-88", "Birth_Place": "Bilbao", "Previous_Club": "Eibar", "Current_Club": "Athletic Club de Bilbao", "Coordinate": "43.262964 -2.934948", "Latitude": 43.262964, "Longitude": -2.934948, "Country": "Spain" }, "geometry": { "type": "Point", "coordinates": [ -2.934948, 43.262964 ] } },
{ "type": "Feature", "properties": { "Number": 3, "Name": "Gorka Elustondo", "Nat": "Espagne", "Pos": "M", "Height": 1.82, "Weight": 73, "Date_of_Birth": "18-03-87", "Birth_Place": "Beasain", "Previous_Club": "Real Sociedad", "Current_Club": "Athletic Club de Bilbao", "Coordinate": "43.047327 -2.203287", "Latitude": 43.047327, "Longitude": -2.203287, "Country": "Spain" }, "geometry": { "type": "Point", "coordinates": [ -2.203287, 43.047327 ] } },
{ "type": "Feature", "properties": { "Number": 4, "Name": "Aymeric Laporte", "Nat": "France", "Pos": "D", "Height": 1.89, "Weight": 85, "Date_of_Birth": "27-05-94", "Birth_Place": "Agen", "Previous_Club": "Athletic Bilbao B", "Current_Club": "Athletic Club de Bilbao", "Coordinate": "44.201562 0.617632", "Latitude": 44.201562, "Longitude": 0.617632, "Country": "Spain" }, "geometry": { "type": "Point", "coordinates": [ 0.617632, 44.201562 ] } },
{ "type": "Feature", "properties": { "Number": 5, "Name": "Javier Eraso", "Nat": "Espagne", "Pos": "M", "Height": 1.8, "Weight": 71, "Date_of_Birth": "22-03-90", "Birth_Place": "Pamplona", "Previous_Club": "Leganés", "Current_Club": "Athletic Club de Bilbao", "Coordinate": "42.81855 -1.644416", "Latitude": 42.81855, "Longitude": -1.644416, "Country": "Spain" }, "geometry": { "type": "Point", "coordinates": [ -1.644416, 42.81855 ] } },
{ "type": "Feature", "properties": { "Number": 6, "Name": "Mikel San José", "Nat": "Espagne", "Pos": "D", "Height": 1.83, "Weight": 78, "Date_of_Birth": "30-05-89", "Birth_Place": "Pamplona", "Previous_Club": "Liverpool", "Current_Club": "Athletic Club de Bilbao", "Coordinate": "42.81855 -1.644416", "Latitude": 42.81855, "Longitude": -1.644416, "Country": "Spain" }, "geometry": { "type": "Point", "coordinates": [ -1.644416, 42.81855 ] } },
{ "type": "Feature", "properties": { "Number": 7, "Name": "Beñat", "Nat": "Espagne", "Pos": "M", "Height": 1.75, "Weight": 72, "Date_of_Birth": "19-02-87", "Birth_Place": "Igorre", "Previous_Club": "Betis", "Current_Club": "Athletic Club de Bilbao", "Coordinate": "43.164245 -2.778343", "Latitude": 43.164245, "Longitude": -2.778343, "Country": "Spain" }, "geometry": { "type": "Point", "coordinates": [ -2.778343, 43.164245 ] } },
{ "type": "Feature", "properties": { "Number": 8, "Name": "Ander Iturraspe", "Nat": "Espagne", "Pos": "M", "Height": 1.87, "Weight": 73, "Date_of_Birth": "08-03-89", "Birth_Place": "Abadiño", "Previous_Club": "Athletic Bilbao B", "Current_Club": "Athletic Club de Bilbao", "Coordinate": "43.15248 -2.608155", "Latitude": 43.15248, "Longitude": -2.608155, "Country": "Spain" }, "geometry": { "type": "Point", "coordinates": [ -2.608155, 43.15248 ] } },
{ "type": "Feature", "properties": { "Number": 10, "Name": "Iker Muniain", "Nat": "Espagne", "Pos": "F", "Height": 1.68, "Weight": 62, "Date_of_Birth": "19-12-92", "Birth_Place": "Iruñea", "Previous_Club": "Athletic Bilbao B", "Current_Club": "Athletic Club de Bilbao", "Coordinate": "43.29295 -1.505334", "Latitude": 43.29295, "Longitude": -1.505334, "Country": "Spain" }, "geometry": { "type": "Point", "coordinates": [ -1.505334, 43.29295 ] } },
{ "type": "Feature", "properties": { "Number": 11, "Name": "Iñaki Williams", "Nat": "Espagne", "Pos": "F", "Height": 1.86, "Weight": 71, "Date_of_Birth": "15-06-94", "Birth_Place": "Bilbao", "Previous_Club": "Athletic Bilbao B", "Current_Club": "Athletic Club de Bilbao", "Coordinate": "43.262964 -2.934948", "Latitude": 43.262964, "Longitude": -2.934948, "Country": "Spain" }, "geometry": { "type": "Point", "coordinates": [ -2.934948, 43.262964 ] } },
{ "type": "Feature", "properties": { "Number": 14, "Name": "Markel Susaeta", "Nat": "Espagne", "Pos": "M", "Height": 1.79, "Weight": 68, "Date_of_Birth": "14-12-87", "Birth_Place": "Eibar", "Previous_Club": "Athletic Bilbao B", "Current_Club": "Athletic Club de Bilbao", "Coordinate": "43.184284 -2.473275", "Latitude": 43.184284, "Longitude": -2.473275, "Country": "Spain" }, "geometry": { "type": "Point", "coordinates": [ -2.473275, 43.184284 ] } },
{ "type": "Feature", "properties": { "Number": 15, "Name": "Íñigo Lekue", "Nat": "Espagne", "Pos": "D", "Height": 1.79, "Weight": 70, "Date_of_Birth": "04-05-93", "Birth_Place": "Bilbao", "Previous_Club": "Athletic Bilbao B", "Current_Club": "Athletic Club de Bilbao", "Coordinate": "43.262964 -2.934948", "Latitude": 43.262964, "Longitude": -2.934948, "Country": "Spain" }, "geometry": { "type": "Point", "coordinates": [ -2.934948, 43.262964 ] } },
{ "type": "Feature", "properties": { "Number": 16, "Name": "Xabier Etxeita", "Nat": "Espagne", "Pos": "M", "Height": 1.85, "Weight": 79, "Date_of_Birth": "31-10-87", "Birth_Place": "Zornotza", "Previous_Club": "Elche", "Current_Club": "Athletic Club de Bilbao", "Coordinate": "43.220176 -2.732315", "Latitude": 43.220176, "Longitude": -2.732315, "Country": "Spain" }, "geometry": { "type": "Point", "coordinates": [ -2.732315, 43.220176 ] } },
{ "type": "Feature", "properties": { "Number": 17, "Name": "Mikel Rico", "Nat": "Espagne", "Pos": "M", "Height": 1.78, "Weight": 75, "Date_of_Birth": "01-11-84", "Birth_Place": "Cruces", "Previous_Club": "Granada", "Current_Club": "Athletic Club de Bilbao", "Coordinate": "22.303487 -80.229104", "Latitude": 22.303487, "Longitude": -80.229104, "Country": "Spain" }, "geometry": { "type": "Point", "coordinates": [ -80.229104, 22.303487 ] } },
{ "type": "Feature", "properties": { "Number": 18, "Name": "Óscar de Marcos", "Nat": "Espagne", "Pos": "M", "Height": 1.8, "Weight": 73, "Date_of_Birth": "14-04-89", "Birth_Place": "Vitoria", "Previous_Club": "Alavés", "Current_Club": "Athletic Club de Bilbao", "Coordinate": "42.846453 -2.67241", "Latitude": 42.846453, "Longitude": -2.67241, "Country": "Spain" }, "geometry": { "type": "Point", "coordinates": [ -2.67241, 42.846453 ] } },
{ "type": "Feature", "properties": { "Number": 19, "Name": "Sabin Merino", "Nat": "Espagne", "Pos": "F", "Height": 1.87, "Weight": 78, "Date_of_Birth": "04-01-92", "Birth_Place": "Urduliz", "Previous_Club": "Athletic Bilbao B", "Current_Club": "Athletic Club de Bilbao", "Coordinate": "43.372649 -2.949235", "Latitude": 43.372649, "Longitude": -2.949235, "Country": "Spain" }, "geometry": { "type": "Point", "coordinates": [ -2.949235, 43.372649 ] } },
{ "type": "Feature", "properties": { "Number": 20, "Name": "Aritz Aduriz", "Nat": "Espagne", "Pos": "F", "Height": 1.77, "Weight": 75, "Date_of_Birth": "11-02-81", "Birth_Place": "San Sebastián", "Previous_Club": "Valencia", "Current_Club": "Athletic Club de Bilbao", "Coordinate": "43.322422 -1.983889", "Latitude": 43.322422, "Longitude": -1.983889, "Country": "Spain" }, "geometry": { "type": "Point", "coordinates": [ -1.983889, 43.322422 ] } },
{ "type": "Feature", "properties": { "Number": 22, "Name": "Raúl García", "Nat": "Espagne", "Pos": "M", "Height": 1.83, "Weight": 80, "Date_of_Birth": "11-07-86", "Birth_Place": "Pamplona", "Previous_Club": "Atlético Madrid", "Current_Club": "Athletic Club de Bilbao", "Coordinate": "42.81855 -1.644416", "Latitude": 42.81855, "Longitude": -1.644416, "Country": "Spain" }, "geometry": { "type": "Point", "coordinates": [ -1.644416, 42.81855 ] } },
{ "type": "Feature", "properties": { "Number": 24, "Name": "Mikel Balenziaga", "Nat": "Espagne", "Pos": "D", "Height": 1.79, "Weight": 74, "Date_of_Birth": "29-02-88", "Birth_Place": "Zumárraga", "Previous_Club": "Valladolid", "Current_Club": "Athletic Club de Bilbao", "Coordinate": "11.676069 124.855103", "Latitude": 11.676069, "Longitude": 124.855103, "Country": "Spain" }, "geometry": { "type": "Point", "coordinates": [ 124.855103, 11.676069 ] } },
{ "type": "Feature", "properties": { "Number": 25, "Name": "Enric Saborit", "Nat": "Espagne", "Pos": "D", "Height": 1.86, "Weight": 72, "Date_of_Birth": "27-04-92", "Birth_Place": "Barcelona", "Previous_Club": "Athletic Bilbao B", "Current_Club": "Athletic Club de Bilbao", "Coordinate": "41.38256 2.177135", "Latitude": 41.38256, "Longitude": 2.177135, "Country": "Spain" }, "geometry": { "type": "Point", "coordinates": [ 2.177135, 41.38256 ] } },
{ "type": "Feature", "properties": { "Number": 26, "Name": "Kepa Arrizabalaga", "Nat": "Espagne", "Pos": "G", "Height": 1.86, "Weight": 81, "Date_of_Birth": "03-10-94", "Birth_Place": "Ondarroa", "Previous_Club": "Athletic Bilbao B", "Current_Club": "Athletic Club de Bilbao", "Coordinate": "43.320729 -2.42075", "Latitude": 43.320729, "Longitude": -2.42075, "Country": "Spain" }, "geometry": { "type": "Point", "coordinates": [ -2.42075, 43.320729 ] } },
{ "type": "Feature", "properties": { "Number": 27, "Name": "Yerai Alvarez", "Nat": "Espagne", "Pos": "D", "Height": 1.82, "Weight": 75, "Date_of_Birth": "24-01-95", "Birth_Place": "Barakaldo", "Previous_Club": "Athletic Bilbao B", "Current_Club": "Athletic Club de Bilbao", "Coordinate": "43.297156 -2.98604", "Latitude": 43.297156, "Longitude": -2.98604, "Country": "Spain" }, "geometry": { "type": "Point", "coordinates": [ -2.98604, 43.297156 ] } },
{ "type": "Feature", "properties": { "Number": 28, "Name": "Asier Villalibre", "Nat": "Espagne", "Pos": "F", "Height": 1.83, "Weight": 82, "Date_of_Birth": "30-09-97", "Birth_Place": "Guernica", "Previous_Club": "Athletic Bilbao B", "Current_Club": "Athletic Club de Bilbao", "Coordinate": "43.314363 -2.677851", "Latitude": 43.314363, "Longitude": -2.677851, "Country": "Spain" }, "geometry": { "type": "Point", "coordinates": [ -2.677851, 43.314363 ] } },
{ "type": "Feature", "properties": { "Number": 29, "Name": "Alejandro Remiro", "Nat": "Espagne", "Pos": "G", "Height": 1.91, "Weight": 80, "Date_of_Birth": "24-03-95", "Birth_Place": "Cascante", "Previous_Club": "Athletic Bilbao B", "Current_Club": "Athletic Club de Bilbao", "Coordinate": "41.999453 -1.678988", "Latitude": 41.999453, "Longitude": -1.678988, "Country": "Spain" }, "geometry": { "type": "Point", "coordinates": [ -1.678988, 41.999453 ] } },
{ "type": "Feature", "properties": { "Number": 31, "Name": "Iker Undabarrena", "Nat": "Espagne", "Pos": "M", "Height": 1.8, "Weight": 75, "Date_of_Birth": "18-05-95", "Birth_Place": "Gorliz", "Previous_Club": "Athletic Bilbao B", "Current_Club": "Athletic Club de Bilbao", "Coordinate": "43.413907 -2.935177", "Latitude": 43.413907, "Longitude": -2.935177, "Country": "Spain" }, "geometry": { "type": "Point", "coordinates": [ -2.935177, 43.413907 ] } },
{ "type": "Feature", "properties": { "Number": 32, "Name": "Unai Simón", "Nat": "Espagne", "Pos": "G", "Height": 1.89, "Weight": 84, "Date_of_Birth": "11-06-97", "Birth_Place": "Vitoria-Gasteiz", "Previous_Club": "Athletic Bilbao B", "Current_Club": "Athletic Club de Bilbao", "Coordinate": "42.846453 -2.67241", "Latitude": 42.846453, "Longitude": -2.67241, "Country": "Spain" }, "geometry": { "type": "Point", "coordinates": [ -2.67241, 42.846453 ] } },
{ "type": "Feature", "properties": { "Number": 33, "Name": "Jon Sillero", "Nat": "Espagne", "Pos": "D", "Height": 1.76, "Weight": 79, "Date_of_Birth": "24-05-98", "Birth_Place": "Durango", "Previous_Club": "Athletic Bilbao B", "Current_Club": "Athletic Club de Bilbao", "Coordinate": "24.833333 -104.833333", "Latitude": 24.833333, "Longitude": -104.833333, "Country": "Spain" }, "geometry": { "type": "Point", "coordinates": [ -104.833333, 24.833333 ] } },
{ "type": "Feature", "properties": { "Number": 34, "Name": "Aitor Seguín", "Nat": "Espagne", "Pos": "M", "Height": 1.79, "Weight": 67, "Date_of_Birth": "27-02-95", "Birth_Place": "Eibar", "Previous_Club": "Athletic Bilbao B", "Current_Club": "Athletic Club de Bilbao", "Coordinate": "43.184284 -2.473275", "Latitude": 43.184284, "Longitude": -2.473275, "Country": "Spain" }, "geometry": { "type": "Point", "coordinates": [ -2.473275, 43.184284 ] } },
{ "type": "Feature", "properties": { "Number": 35, "Name": "Jurgi Oteo", "Nat": "Espagne", "Pos": "F", "Height": 1.71, "Weight": 64, "Date_of_Birth": "29-08-96", "Birth_Place": "Barakaldo", "Previous_Club": "Athletic Bilbao B", "Current_Club": "Athletic Club de Bilbao", "Coordinate": "43.297156 -2.98604", "Latitude": 43.297156, "Longitude": -2.98604, "Country": "Spain" }, "geometry": { "type": "Point", "coordinates": [ -2.98604, 43.297156 ] } },
{ "type": "Feature", "properties": { "Number": 36, "Name": "Unai Núñez", "Nat": "Espagne", "Pos": "D", "Height": 1.86, "Weight": 77, "Date_of_Birth": "30-01-97", "Birth_Place": "Portugalete", "Previous_Club": "Athletic Bilbao B", "Current_Club": "Athletic Club de Bilbao", "Coordinate": "43.31908 -3.020112", "Latitude": 43.31908, "Longitude": -3.020112, "Country": "Spain" }, "geometry": { "type": "Point", "coordinates": [ -3.020112, 43.31908 ] } },
{ "type": "Feature", "properties": { "Number": 37, "Name": "Andoni López", "Nat": "Espagne", "Pos": "D", "Height": 1.87, "Weight": 73, "Date_of_Birth": "05-04-96", "Birth_Place": "Barakaldo", "Previous_Club": "Athletic Bilbao B", "Current_Club": "Athletic Club de Bilbao", "Coordinate": "43.297156 -2.98604", "Latitude": 43.297156, "Longitude": -2.98604, "Country": "Spain" }, "geometry": { "type": "Point", "coordinates": [ -2.98604, 43.297156 ] } },
{ "type": "Feature", "properties": { "Number": 38, "Name": "Gorka Guruzeta", "Nat": "Espagne", "Pos": "F", "Height": 1.88, "Weight": 73, "Date_of_Birth": "12-09-96", "Birth_Place": "San Sebastián", "Previous_Club": "Athletic Bilbao B", "Current_Club": "Athletic Club de Bilbao", "Coordinate": "43.322422 -1.983889", "Latitude": 43.322422, "Longitude": -1.983889, "Country": "Spain" }, "geometry": { "type": "Point", "coordinates": [ -1.983889, 43.322422 ] } },
{ "type": "Feature", "properties": { "Number": 39, "Name": "Oli", "Nat": "Espagne", "Pos": "F", "Height": 1.72, "Weight": 65, "Date_of_Birth": "02-02-96", "Birth_Place": "Sondika", "Previous_Club": "Athletic Bilbao B", "Current_Club": "Athletic Club de Bilbao", "Coordinate": "43.299066 -2.926051", "Latitude": 43.299066, "Longitude": -2.926051, "Country": "Spain" }, "geometry": { "type": "Point", "coordinates": [ -2.926051, 43.299066 ] } },
{ "type": "Feature", "properties": { "Number": 40, "Name": "Unai Etxebarria", "Nat": "Espagne", "Pos": "G", "Height": 1.88, "Weight": 81, "Date_of_Birth": "30-08-96", "Birth_Place": "Getxo", "Previous_Club": "Athletic Bilbao B", "Current_Club": "Athletic Club de Bilbao", "Coordinate": "43.347941 -3.008767", "Latitude": 43.347941, "Longitude": -3.008767, "Country": "Spain" }, "geometry": { "type": "Point", "coordinates": [ -3.008767, 43.347941 ] } },
{ "type": "Feature", "properties": { "Number": 41, "Name": "Íñigo Córdoba", "Nat": "Espagne", "Pos": "M", "Height": 1.78, "Weight": 75, "Date_of_Birth": "13-03-97", "Birth_Place": "Bilbao", "Previous_Club": "Athletic Bilbao B", "Current_Club": "Athletic Club de Bilbao", "Coordinate": "43.262964 -2.934948", "Latitude": 43.262964, "Longitude": -2.934948, "Country": "Spain" }, "geometry": { "type": "Point", "coordinates": [ -2.934948, 43.262964 ] } },
{ "type": "Feature", "properties": { "Number": 42, "Name": "Jon Agirrezabala", "Nat": "Espagne", "Pos": "D", "Height": 1.73, "Weight": 72, "Date_of_Birth": "31-10-95", "Birth_Place": "Galdakao", "Previous_Club": "Athletic Bilbao B", "Current_Club": "Athletic Club de Bilbao", "Coordinate": "43.233264 -2.845338", "Latitude": 43.233264, "Longitude": -2.845338, "Country": "Spain" }, "geometry": { "type": "Point", "coordinates": [ -2.845338, 43.233264 ] } },
{ "type": "Feature", "properties": { "Number": 1, "Name": "Miguel Ángel Moyá", "Nat": "Espagne", "Pos": "G", "Height": 1.85, "Weight": 75, "Date_of_Birth": "02-04-84", "Birth_Place": "Binissalem", "Previous_Club": "Getafe", "Current_Club": "Club Atlético de Madrid", "Coordinate": "39.688928 2.842053", "Latitude": 39.688928, "Longitude": 2.842053, "Country": "Spain" }, "geometry": { "type": "Point", "coordinates": [ 2.842053, 39.688928 ] } },
{ "type": "Feature", "properties": { "Number": 2, "Name": "Diego Godín", "Nat": "Urugay", "Pos": "D", "Height": 1.85, "Weight": 73, "Date_of_Birth": "16-02-86", "Birth_Place": "Rosario", "Previous_Club": "Villarreal", "Current_Club": "Club Atlético de Madrid", "Coordinate": "-93.621041", "Latitude": -32.9595, "Longitude": -60.661541, "Country": "Spain" }, "geometry": { "type": "Point", "coordinates": [ -60.661541, -32.9595 ] } },
{ "type": "Feature", "properties": { "Number": 3, "Name": "Filipe Luis", "Nat": "Brésil", "Pos": "D", "Height": 1.82, "Weight": 70, "Date_of_Birth": "09-08-85", "Birth_Place": "Jaraguá do Sul", "Previous_Club": "Chelsea", "Current_Club": "Club Atlético de Madrid", "Coordinate": "-75.567549", "Latitude": -26.489743, "Longitude": -49.077806, "Country": "Spain" }, "geometry": { "type": "Point", "coordinates": [ -49.077806, -26.489743 ] } },
{ "type": "Feature", "properties": { "Number": 5, "Name": "Tiago", "Nat": "Portugal", "Pos": "M", "Height": 1.83, "Weight": 75, "Date_of_Birth": "02-05-81", "Birth_Place": "Viana do Castelo", "Previous_Club": "Juventus", "Current_Club": "Club Atlético de Madrid", "Coordinate": "41.695144 -8.829906", "Latitude": 41.695144, "Longitude": -8.829906, "Country": "Spain" }, "geometry": { "type": "Point", "coordinates": [ -8.829906, 41.695144 ] } },
{ "type": "Feature", "properties": { "Number": 6, "Name": "Koke", "Nat": "Espagne", "Pos": "M", "Height": 1.78, "Weight": 73, "Date_of_Birth": "08-01-92", "Birth_Place": "Madrid", "Previous_Club": "Atlético Madrid B", "Current_Club": "Club Atlético de Madrid", "Coordinate": "40.416705 -3.703582", "Latitude": 40.416705, "Longitude": -3.703582, "Country": "Spain" }, "geometry": { "type": "Point", "coordinates": [ -3.703582, 40.416705 ] } },
{ "type": "Feature", "properties": { "Number": 7, "Name": "Antoine Griezmann", "Nat": "France", "Pos": "F", "Height": 1.74, "Weight": 72, "Date_of_Birth": "21-03-91", "Birth_Place": "Mâcon", "Previous_Club": "Real Sociedad", "Current_Club": "Club Atlético de Madrid", "Coordinate": "46.30345 4.832507", "Latitude": 46.30345, "Longitude": 4.832507, "Country": "Spain" }, "geometry": { "type": "Point", "coordinates": [ 4.832507, 46.30345 ] } },
{ "type": "Feature", "properties": { "Number": 8, "Name": "Saúl Ñiguez", "Nat": "Espagne", "Pos": "M", "Height": 1.82, "Weight": 73, "Date_of_Birth": "21-11-94", "Birth_Place": "Elche", "Previous_Club": "Atlético Madrid B", "Current_Club": "Club Atlético de Madrid", "Coordinate": "38.265318 -0.698849", "Latitude": 38.265318, "Longitude": -0.698849, "Country": "Spain" }, "geometry": { "type": "Point", "coordinates": [ -0.698849, 38.265318 ] } },
{ "type": "Feature", "properties": { "Number": 9, "Name": "Fernando Torres", "Nat": "Espagne", "Pos": "F", "Height": 1.86, "Weight": 78, "Date_of_Birth": "20-03-84", "Birth_Place": "Madrid", "Previous_Club": "Milan", "Current_Club": "Club Atlético de Madrid", "Coordinate": "40.416705 -3.703582", "Latitude": 40.416705, "Longitude": -3.703582, "Country": "Spain" }, "geometry": { "type": "Point", "coordinates": [ -3.703582, 40.416705 ] } },
{ "type": "Feature", "properties": { "Number": 10, "Name": "Yannick Ferreira Carrasco", "Nat": "Belgique", "Pos": "M", "Height": 1.8, "Weight": 67, "Date_of_Birth": "04-09-93", "Birth_Place": "Elsene", "Previous_Club": "Monaco", "Current_Club": "Club Atlético de Madrid", "Coordinate": "50.822285 4.381571", "Latitude": 50.822285, "Longitude": 4.381571, "Country": "Spain" }, "geometry": { "type": "Point", "coordinates": [ 4.381571, 50.822285 ] } },
{ "type": "Feature", "properties": { "Number": 11, "Name": "Ángel Correa", "Nat": "Argentine", "Pos": "M", "Height": 1.74, "Weight": 69, "Date_of_Birth": "09-03-95", "Birth_Place": "Rosario", "Previous_Club": "San Lorenzo", "Current_Club": "Club Atlético de Madrid", "Coordinate": "-93.621041", "Latitude": -32.9595, "Longitude": -60.661541, "Country": "Spain" }, "geometry": { "type": "Point", "coordinates": [ -60.661541, -32.9595 ] } },
{ "type": "Feature", "properties": { "Number": 12, "Name": "Augusto Fernández", "Nat": "Argentine", "Pos": "M", "Height": 1.77, "Weight": 71, "Date_of_Birth": "10-04-86", "Birth_Place": "Pergamino", "Previous_Club": "Celta Vigo", "Current_Club": "Club Atlético de Madrid", "Coordinate": "-94.461699", "Latitude": -33.89536, "Longitude": -60.566339, "Country": "Spain" }, "geometry": { "type": "Point", "coordinates": [ -60.566339, -33.89536 ] } },
{ "type": "Feature", "properties": { "Number": 13, "Name": "Jan Oblak", "Nat": "Slovénie", "Pos": "G", "Height": 1.85, "Weight": 77, "Date_of_Birth": "07-01-93", "Birth_Place": "Škofja Loka", "Previous_Club": "Benfica", "Current_Club": "Club Atlético de Madrid", "Coordinate": "46.166673 14.306478", "Latitude": 46.166673, "Longitude": 14.306478, "Country": "Spain" }, "geometry": { "type": "Point", "coordinates": [ 14.306478, 46.166673 ] } },
{ "type": "Feature", "properties": { "Number": 14, "Name": "Gabi", "Nat": "Espagne", "Pos": "M", "Height": 1.79, "Weight": 68, "Date_of_Birth": "10-07-83", "Birth_Place": "Madrid", "Previous_Club": "Zaragoza", "Current_Club": "Club Atlético de Madrid", "Coordinate": "40.416705 -3.703582", "Latitude": 40.416705, "Longitude": -3.703582, "Country": "Spain" }, "geometry": { "type": "Point", "coordinates": [ -3.703582, 40.416705 ] } },
{ "type": "Feature", "properties": { "Number": 15, "Name": "Stefan Savić", "Nat": "Monténégro", "Pos": "D", "Height": 1.86, "Weight": 73, "Date_of_Birth": "08-01-91", "Birth_Place": "Mojkovac", "Previous_Club": "Fiorentina", "Current_Club": "Club Atlético de Madrid", "Coordinate": "42.959803 19.583555", "Latitude": 42.959803, "Longitude": 19.583555, "Country": "Spain" }, "geometry": { "type": "Point", "coordinates": [ 19.583555, 42.959803 ] } },
{ "type": "Feature", "properties": { "Number": 16, "Name": "Šime Vrsaljko", "Nat": "Croatie", "Pos": "D", "Height": 1.83, "Weight": 76, "Date_of_Birth": "10-01-92", "Birth_Place": "Zadar", "Previous_Club": "Sassuolo", "Current_Club": "Club Atlético de Madrid", "Coordinate": "44.115723 15.224835", "Latitude": 44.115723, "Longitude": 15.224835, "Country": "Spain" }, "geometry": { "type": "Point", "coordinates": [ 15.224835, 44.115723 ] } },
{ "type": "Feature", "properties": { "Number": 17, "Name": "Alessio Cerci", "Nat": "Italie", "Pos": "F", "Height": 1.8, "Weight": 78, "Date_of_Birth": "23-07-87", "Birth_Place": "Velletri", "Previous_Club": "Torino", "Current_Club": "Club Atlético de Madrid", "Coordinate": "41.669215 12.779287", "Latitude": 41.669215, "Longitude": 12.779287, "Country": "Spain" }, "geometry": { "type": "Point", "coordinates": [ 12.779287, 41.669215 ] } },
{ "type": "Feature", "properties": { "Number": 19, "Name": "Lucas Hernández", "Nat": "France", "Pos": "D", "Height": 1.8, "Weight": 75, "Date_of_Birth": "14-02-96", "Birth_Place": "Marseille", "Previous_Club": "Atlético Madrid B", "Current_Club": "Club Atlético de Madrid", "Coordinate": "43.296174 5.369953", "Latitude": 43.296174, "Longitude": 5.369953, "Country": "Spain" }, "geometry": { "type": "Point", "coordinates": [ 5.369953, 43.296174 ] } },
{ "type": "Feature", "properties": { "Number": 20, "Name": "Juanfran", "Nat": "Espagne", "Pos": "D", "Height": 1.8, "Weight": 72, "Date_of_Birth": "09-01-85", "Birth_Place": "Crevillent", "Previous_Club": "Osasuna", "Current_Club": "Club Atlético de Madrid", "Coordinate": "38.24931 -0.811136", "Latitude": 38.24931, "Longitude": -0.811136, "Country": "Spain" }, "geometry": { "type": "Point", "coordinates": [ -0.811136, 38.24931 ] } },
{ "type": "Feature", "properties": { "Number": 21, "Name": "Kevin Gameiro", "Nat": "France", "Pos": "F", "Height": 1.72, "Weight": 69, "Date_of_Birth": "09-04-87", "Birth_Place": "Senlis", "Previous_Club": "Sevilla", "Current_Club": "Club Atlético de Madrid", "Coordinate": "49.20654 2.584658", "Latitude": 49.20654, "Longitude": 2.584658, "Country": "Spain" }, "geometry": { "type": "Point", "coordinates": [ 2.584658, 49.20654 ] } },
{ "type": "Feature", "properties": { "Number": 22, "Name": "Thomas Partey", "Nat": "Ghana", "Pos": "M", "Height": 1.85, "Weight": 73, "Date_of_Birth": "13-07-93", "Birth_Place": "Odumase Krobo", "Previous_Club": "Atlético Madrid B", "Current_Club": "Club Atlético de Madrid", "Coordinate": "39.78373 -100.445882", "Latitude": 39.78373, "Longitude": -100.445882, "Country": "Spain" }, "geometry": { "type": "Point", "coordinates": [ -100.445882, 39.78373 ] } },
{ "type": "Feature", "properties": { "Number": 23, "Name": "Nicolás Gaitán", "Nat": "Argentine", "Pos": "M", "Height": 1.73, "Weight": 67, "Date_of_Birth": "23-02-88", "Birth_Place": "San Martín", "Previous_Club": "Benfica", "Current_Club": "Club Atlético de Madrid", "Coordinate": "-83.833333", "Latitude": -7.0, "Longitude": -76.833333, "Country": "Spain" }, "geometry": { "type": "Point", "coordinates": [ -76.833333, -7.0 ] } },
{ "type": "Feature", "properties": { "Number": 24, "Name": "José Giménez", "Nat": "Urugay", "Pos": "D", "Height": 1.85, "Weight": 80, "Date_of_Birth": "20-01-95", "Birth_Place": "Toledo", "Previous_Club": "Danubio", "Current_Club": "Club Atlético de Madrid", "Coordinate": "41.678675 -83.512728", "Latitude": 41.678675, "Longitude": -83.512728, "Country": "Spain" }, "geometry": { "type": "Point", "coordinates": [ -83.512728, 41.678675 ] } },
{ "type": "Feature", "properties": { "Number": 25, "Name": "André Moreira", "Nat": "Portugal", "Pos": "G", "Height": 1.95, "Weight": 85, "Date_of_Birth": "02-12-95", "Birth_Place": "Ribeirão", "Previous_Club": "Ribeirão", "Current_Club": "Club Atlético de Madrid", "Coordinate": "-43.869542", "Latitude": -8.497126, "Longitude": -35.372416, "Country": "Spain" }, "geometry": { "type": "Point", "coordinates": [ -35.372416, -8.497126 ] } },
{ "type": "Feature", "properties": { "Number": 26, "Name": "Bernabé", "Nat": "Espagne", "Pos": "G", "Height": 1.89, "Weight": 76, "Date_of_Birth": "18-02-93", "Birth_Place": "Los Palacios", "Previous_Club": "Betis B", "Current_Club": "Club Atlético de Madrid", "Coordinate": "22.525371 -83.240763", "Latitude": 22.525371, "Longitude": -83.240763, "Country": "Spain" }, "geometry": { "type": "Point", "coordinates": [ -83.240763, 22.525371 ] } },
{ "type": "Feature", "properties": { "Number": 27, "Name": "Caio", "Nat": "Brésil", "Pos": "M", "Height": 1.77, "Weight": 70, "Date_of_Birth": "31-07-97", "Birth_Place": "Santos", "Previous_Club": "Santos", "Current_Club": "Club Atlético de Madrid", "Coordinate": "-70.294722", "Latitude": -23.960833, "Longitude": -46.333889, "Country": "Spain" }, "geometry": { "type": "Point", "coordinates": [ -46.333889, -23.960833 ] } },
{ "type": "Feature", "properties": { "Number": 28, "Name": "Nicolás Schiappacasse", "Nat": "Urugay", "Pos": "F", "Height": 1.8, "Weight": 73, "Date_of_Birth": "12-01-99", "Birth_Place": "Montevideo", "Previous_Club": "River Plate [URU]", "Current_Club": "Club Atlético de Madrid", "Coordinate": "-91.097261", "Latitude": -34.905904, "Longitude": -56.191357, "Country": "Spain" }, "geometry": { "type": "Point", "coordinates": [ -56.191357, -34.905904 ] } },
{ "type": "Feature", "properties": { "Number": 34, "Name": "Roberto Olabe", "Nat": "Espagne", "Pos": "M", "Height": null, "Weight": null, "Date_of_Birth": "05-05-96", "Birth_Place": "Salamanca", "Previous_Club": "Villarreal C", "Current_Club": "Club Atlético de Madrid", "Coordinate": "40.965157 -5.664018", "Latitude": 40.965157, "Longitude": -5.664018, "Country": "Spain" }, "geometry": { "type": "Point", "coordinates": [ -5.664018, 40.965157 ] } },
{ "type": "Feature", "properties": { "Number": 37, "Name": "Alberto Rodríguez", "Nat": "Espagne", "Pos": "D", "Height": 1.85, "Weight": 72, "Date_of_Birth": "10-09-97", "Birth_Place": "Fuenlabrada", "Previous_Club": "Atlético Madrid B", "Current_Club": "Club Atlético de Madrid", "Coordinate": "40.282476 -3.792342", "Latitude": 40.282476, "Longitude": -3.792342, "Country": "Spain" }, "geometry": { "type": "Point", "coordinates": [ -3.792342, 40.282476 ] } },
{ "type": "Feature", "properties": { "Number": 39, "Name": "Juan Moreno", "Nat": "Espagne", "Pos": "M", "Height": 1.75, "Weight": 69, "Date_of_Birth": "11-05-97", "Birth_Place": "Móstoles", "Previous_Club": "Atlético Madrid B", "Current_Club": "Club Atlético de Madrid", "Coordinate": "40.323853 -3.864921", "Latitude": 40.323853, "Longitude": -3.864921, "Country": "Spain" }, "geometry": { "type": "Point", "coordinates": [ -3.864921, 40.323853 ] } },
{ "type": "Feature", "properties": { "Number": 42, "Name": "Roberto Núñez", "Nat": "Espagne", "Pos": "F", "Height": 1.82, "Weight": 77, "Date_of_Birth": "03-01-96", "Birth_Place": "Talavera de la Reina", "Previous_Club": "Atlético Madrid B", "Current_Club": "Club Atlético de Madrid", "Coordinate": "39.96071 -4.829963", "Latitude": 39.96071, "Longitude": -4.829963, "Country": "Spain" }, "geometry": { "type": "Point", "coordinates": [ -4.829963, 39.96071 ] } },
{ "type": "Feature", "properties": { "Number": 44, "Name": "Keidi Bare", "Nat": "Albanie", "Pos": "M", "Height": 1.74, "Weight": 59, "Date_of_Birth": "28-08-97", "Birth_Place": "Fier", "Previous_Club": "Atlético Madrid B", "Current_Club": "Club Atlético de Madrid", "Coordinate": "40.725094 19.558219", "Latitude": 40.725094, "Longitude": 19.558219, "Country": "Spain" }, "geometry": { "type": "Point", "coordinates": [ 19.558219, 40.725094 ] } },
{ "type": "Feature", "properties": { "Number": 45, "Name": "Ferni", "Nat": "Espagne", "Pos": "M", "Height": 1.8, "Weight": 72, "Date_of_Birth": "07-04-98", "Birth_Place": "Talavera de la Reina", "Previous_Club": "Atlético Madrid B", "Current_Club": "Club Atlético de Madrid", "Coordinate": "39.96071 -4.829963", "Latitude": 39.96071, "Longitude": -4.829963, "Country": "Spain" }, "geometry": { "type": "Point", "coordinates": [ -4.829963, 39.96071 ] } },
{ "type": "Feature", "properties": { "Number": 46, "Name": "Toni Moya", "Nat": "Espagne", "Pos": "M", "Height": null, "Weight": null, "Date_of_Birth": "20-03-98", "Birth_Place": "Mérida", "Previous_Club": "Atlético Madrid B", "Current_Club": "Club Atlético de Madrid", "Coordinate": "38.917467 -6.344398", "Latitude": 38.917467, "Longitude": -6.344398, "Country": "Spain" }, "geometry": { "type": "Point", "coordinates": [ -6.344398, 38.917467 ] } },
{ "type": "Feature", "properties": { "Number": 1, "Name": "Marc-André ter Stegen", "Nat": "Allemagne", "Pos": "G", "Height": 1.85, "Weight": 82, "Date_of_Birth": "30-04-92", "Birth_Place": "Mönchengladbach", "Previous_Club": "B Mönchengladbach", "Current_Club": "Fútbol Club Barcelona", "Coordinate": "51.194698 6.435364", "Latitude": 51.194698, "Longitude": 6.435364, "Country": "Spain" }, "geometry": { "type": "Point", "coordinates": [ 6.435364, 51.194698 ] } },
{ "type": "Feature", "properties": { "Number": 3, "Name": "Gerard Piqué", "Nat": "Espagne", "Pos": "D", "Height": 1.92, "Weight": 85, "Date_of_Birth": "02-02-87", "Birth_Place": "Barcelona", "Previous_Club": "Manchester U", "Current_Club": "Fútbol Club Barcelona", "Coordinate": "41.38256 2.177135", "Latitude": 41.38256, "Longitude": 2.177135, "Country": "Spain" }, "geometry": { "type": "Point", "coordinates": [ 2.177135, 41.38256 ] } },
{ "type": "Feature", "properties": { "Number": 4, "Name": "Ivan Rakitić", "Nat": "Croatie", "Pos": "M", "Height": 1.84, "Weight": 79, "Date_of_Birth": "10-03-88", "Birth_Place": "Rheinfelden", "Previous_Club": "Sevilla", "Current_Club": "Fútbol Club Barcelona", "Coordinate": "47.554386 7.792291", "Latitude": 47.554386, "Longitude": 7.792291, "Country": "Spain" }, "geometry": { "type": "Point", "coordinates": [ 7.792291, 47.554386 ] } },
{ "type": "Feature", "properties": { "Number": 5, "Name": "Sergio Busquets", "Nat": "Espagne", "Pos": "M", "Height": 1.89, "Weight": 73, "Date_of_Birth": "16-07-88", "Birth_Place": "Sabadell", "Previous_Club": "Barcelona B", "Current_Club": "Fútbol Club Barcelona", "Coordinate": "41.546421 2.108794", "Latitude": 41.546421, "Longitude": 2.108794, "Country": "Spain" }, "geometry": { "type": "Point", "coordinates": [ 2.108794, 41.546421 ] } },
{ "type": "Feature", "properties": { "Number": 6, "Name": "Denis Suárez", "Nat": "Espagne", "Pos": "M", "Height": 1.81, "Weight": 72, "Date_of_Birth": "06-01-94", "Birth_Place": "Tui", "Previous_Club": "Villarreal", "Current_Club": "Fútbol Club Barcelona", "Coordinate": "42.050001 -8.644355", "Latitude": 42.050001, "Longitude": -8.644355, "Country": "Spain" }, "geometry": { "type": "Point", "coordinates": [ -8.644355, 42.050001 ] } },
{ "type": "Feature", "properties": { "Number": 7, "Name": "Arda Turan", "Nat": "Turquie", "Pos": "M", "Height": 1.76, "Weight": 72, "Date_of_Birth": "30-01-87", "Birth_Place": "Fatih", "Previous_Club": "Atlético Madrid", "Current_Club": "Fútbol Club Barcelona", "Coordinate": "41.014465 28.954523", "Latitude": 41.014465, "Longitude": 28.954523, "Country": "Spain" }, "geometry": { "type": "Point", "coordinates": [ 28.954523, 41.014465 ] } },
{ "type": "Feature", "properties": { "Number": 8, "Name": "Andrés Iniesta", "Nat": "Espagne", "Pos": "M", "Height": 1.7, "Weight": 65, "Date_of_Birth": "11-05-84", "Birth_Place": "Fuentealbilla", "Previous_Club": "Barcelona B", "Current_Club": "Fútbol Club Barcelona", "Coordinate": "39.267254 -1.549222", "Latitude": 39.267254, "Longitude": -1.549222, "Country": "Spain" }, "geometry": { "type": "Point", "coordinates": [ -1.549222, 39.267254 ] } },
{ "type": "Feature", "properties": { "Number": 9, "Name": "Luis Suárez", "Nat": "Urugay", "Pos": "F", "Height": 1.81, "Weight": 81, "Date_of_Birth": "24-01-87", "Birth_Place": "Salto", "Previous_Club": "Liverpool", "Current_Club": "Fútbol Club Barcelona", "Coordinate": "20.5391 -103.240377", "Latitude": 20.5391, "Longitude": -103.240377, "Country": "Spain" }, "geometry": { "type": "Point", "coordinates": [ -103.240377, 20.5391 ] } },
{ "type": "Feature", "properties": { "Number": 10, "Name": "Lionel Messi", "Nat": "Argentine", "Pos": "M", "Height": 1.69, "Weight": 67, "Date_of_Birth": "24-06-87", "Birth_Place": "Santa Fe", "Previous_Club": "Barcelona B", "Current_Club": "Fútbol Club Barcelona", "Coordinate": "-91.479982", "Latitude": -30.315474, "Longitude": -61.164508, "Country": "Spain" }, "geometry": { "type": "Point", "coordinates": [ -61.164508, -30.315474 ] } },
{ "type": "Feature", "properties": { "Number": 11, "Name": "Neymar", "Nat": "Brésil", "Pos": "F", "Height": 1.74, "Weight": 64, "Date_of_Birth": "05-02-92", "Birth_Place": "Mogi das Cruzes", "Previous_Club": "Santos", "Current_Club": "Fútbol Club Barcelona", "Coordinate": "-69.715064", "Latitude": -23.524117, "Longitude": -46.190947, "Country": "Spain" }, "geometry": { "type": "Point", "coordinates": [ -46.190947, -23.524117 ] } },
{ "type": "Feature", "properties": { "Number": 12, "Name": "Rafinha", "Nat": "Brésil", "Pos": "M", "Height": 1.77, "Weight": 75, "Date_of_Birth": "12-02-93", "Birth_Place": "Bari", "Previous_Club": "Barcelona B", "Current_Club": "Fútbol Club Barcelona", "Coordinate": "41.125784 16.862029", "Latitude": 41.125784, "Longitude": 16.862029, "Country": "Spain" }, "geometry": { "type": "Point", "coordinates": [ 16.862029, 41.125784 ] } },
{ "type": "Feature", "properties": { "Number": 13, "Name": "Jasper Cillessen", "Nat": "Pays-bas", "Pos": "G", "Height": 1.87, "Weight": 82, "Date_of_Birth": "22-04-89", "Birth_Place": "Groesbeek", "Previous_Club": "Ajax", "Current_Club": "Fútbol Club Barcelona", "Coordinate": "51.77594 5.939637", "Latitude": 51.77594, "Longitude": 5.939637, "Country": "Spain" }, "geometry": { "type": "Point", "coordinates": [ 5.939637, 51.77594 ] } },
{ "type": "Feature", "properties": { "Number": 14, "Name": "Javier Mascherano", "Nat": "Argentine", "Pos": "M", "Height": 1.78, "Weight": 77, "Date_of_Birth": "08-06-84", "Birth_Place": "Rosario", "Previous_Club": "Liverpool", "Current_Club": "Fútbol Club Barcelona", "Coordinate": "-93.621041", "Latitude": -32.9595, "Longitude": -60.661541, "Country": "Spain" }, "geometry": { "type": "Point", "coordinates": [ -60.661541, -32.9595 ] } },
{ "type": "Feature", "properties": { "Number": 17, "Name": "Paco Alcácer", "Nat": "Espagne", "Pos": "F", "Height": 1.74, "Weight": 71, "Date_of_Birth": "30-08-93", "Birth_Place": "Torrent", "Previous_Club": "Valencia", "Current_Club": "Fútbol Club Barcelona", "Coordinate": "39.436535 -0.4679", "Latitude": 39.436535, "Longitude": -0.4679, "Country": "Spain" }, "geometry": { "type": "Point", "coordinates": [ -0.4679, 39.436535 ] } },
{ "type": "Feature", "properties": { "Number": 18, "Name": "Jordi Alba", "Nat": "Espagne", "Pos": "D", "Height": 1.65, "Weight": 63, "Date_of_Birth": "21-03-89", "Birth_Place": "L'Hospitalet de Llobregat", "Previous_Club": "Valencia", "Current_Club": "Fútbol Club Barcelona", "Coordinate": "41.35986 2.099793", "Latitude": 41.35986, "Longitude": 2.099793, "Country": "Spain" }, "geometry": { "type": "Point", "coordinates": [ 2.099793, 41.35986 ] } },
{ "type": "Feature", "properties": { "Number": 19, "Name": "Lucas Digne", "Nat": "France", "Pos": "D", "Height": 1.78, "Weight": 74, "Date_of_Birth": "20-07-93", "Birth_Place": "Meaux", "Previous_Club": "Paris St-Germain", "Current_Club": "Fútbol Club Barcelona", "Coordinate": "48.958915 2.896487", "Latitude": 48.958915, "Longitude": 2.896487, "Country": "Spain" }, "geometry": { "type": "Point", "coordinates": [ 2.896487, 48.958915 ] } },
{ "type": "Feature", "properties": { "Number": 20, "Name": "Sergi Roberto", "Nat": "Espagne", "Pos": "M", "Height": 1.73, "Weight": 70, "Date_of_Birth": "07-02-92", "Birth_Place": "Reus", "Previous_Club": "Barcelona B", "Current_Club": "Fútbol Club Barcelona", "Coordinate": "41.155556 1.107613", "Latitude": 41.155556, "Longitude": 1.107613, "Country": "Spain" }, "geometry": { "type": "Point", "coordinates": [ 1.107613, 41.155556 ] } },
{ "type": "Feature", "properties": { "Number": 21, "Name": "André Gomes", "Nat": "Portugal", "Pos": "M", "Height": 1.88, "Weight": 83, "Date_of_Birth": "30-07-93", "Birth_Place": "Porto", "Previous_Club": "Valencia", "Current_Club": "Fútbol Club Barcelona", "Coordinate": "41.149451 -8.610788", "Latitude": 41.149451, "Longitude": -8.610788, "Country": "Spain" }, "geometry": { "type": "Point", "coordinates": [ -8.610788, 41.149451 ] } },
{ "type": "Feature", "properties": { "Number": 22, "Name": "Aleix Vidal", "Nat": "Espagne", "Pos": "M", "Height": 1.76, "Weight": 70, "Date_of_Birth": "21-08-89", "Birth_Place": "Valls", "Previous_Club": "Sevilla", "Current_Club": "Fútbol Club Barcelona", "Coordinate": "41.283536 1.247364", "Latitude": 41.283536, "Longitude": 1.247364, "Country": "Spain" }, "geometry": { "type": "Point", "coordinates": [ 1.247364, 41.283536 ] } },
{ "type": "Feature", "properties": { "Number": 23, "Name": "Samuel Umtiti", "Nat": "France", "Pos": "D", "Height": 1.81, "Weight": 75, "Date_of_Birth": "14-11-93", "Birth_Place": "Yaoundé", "Previous_Club": "Lyon", "Current_Club": "Fútbol Club Barcelona", "Coordinate": "3.868987 11.521334", "Latitude": 3.868987, "Longitude": 11.521334, "Country": "Spain" }, "geometry": { "type": "Point", "coordinates": [ 11.521334, 3.868987 ] } },
{ "type": "Feature", "properties": { "Number": 24, "Name": "Jérémy Mathieu", "Nat": "France", "Pos": "D", "Height": 1.9, "Weight": 82, "Date_of_Birth": "29-10-83", "Birth_Place": "Luxeuil-les-Bains", "Previous_Club": "Valencia", "Current_Club": "Fútbol Club Barcelona", "Coordinate": "47.817177 6.380887", "Latitude": 47.817177, "Longitude": 6.380887, "Country": "Spain" }, "geometry": { "type": "Point", "coordinates": [ 6.380887, 47.817177 ] } },
{ "type": "Feature", "properties": { "Number": 25, "Name": "Jordi Masip", "Nat": "Espagne", "Pos": "G", "Height": 1.8, "Weight": 72, "Date_of_Birth": "03-01-89", "Birth_Place": "Sabadell", "Previous_Club": "Barcelona B", "Current_Club": "Fútbol Club Barcelona", "Coordinate": "41.546421 2.108794", "Latitude": 41.546421, "Longitude": 2.108794, "Country": "Spain" }, "geometry": { "type": "Point", "coordinates": [ 2.108794, 41.546421 ] } },
{ "type": "Feature", "properties": { "Number": 26, "Name": "José Aurelio Suárez", "Nat": "Espagne", "Pos": "G", "Height": 1.87, "Weight": 85, "Date_of_Birth": "18-12-95", "Birth_Place": "Gijón", "Previous_Club": "Barcelona B", "Current_Club": "Fútbol Club Barcelona", "Coordinate": "43.545039 -5.662644", "Latitude": 43.545039, "Longitude": -5.662644, "Country": "Spain" }, "geometry": { "type": "Point", "coordinates": [ -5.662644, 43.545039 ] } },
{ "type": "Feature", "properties": { "Number": 27, "Name": "Wilfrid Kaptoum", "Nat": "Cameroun", "Pos": "M", "Height": 1.74, "Weight": 71, "Date_of_Birth": "07-07-96", "Birth_Place": "Douala", "Previous_Club": "Barcelona B", "Current_Club": "Fútbol Club Barcelona", "Coordinate": "4.053729 9.664307", "Latitude": 4.053729, "Longitude": 9.664307, "Country": "Spain" }, "geometry": { "type": "Point", "coordinates": [ 9.664307, 4.053729 ] } },
{ "type": "Feature", "properties": { "Number": 28, "Name": "Carles Aleñà", "Nat": "Espagne", "Pos": "M", "Height": 1.8, "Weight": 70, "Date_of_Birth": "05-01-98", "Birth_Place": "Mataró", "Previous_Club": "Barcelona B", "Current_Club": "Fútbol Club Barcelona", "Coordinate": "41.539841 2.444895", "Latitude": 41.539841, "Longitude": 2.444895, "Country": "Spain" }, "geometry": { "type": "Point", "coordinates": [ 2.444895, 41.539841 ] } },
{ "type": "Feature", "properties": { "Number": 30, "Name": "Álex Carbonell", "Nat": "Espagne", "Pos": "M", "Height": 1.75, "Weight": 70, "Date_of_Birth": "15-09-97", "Birth_Place": "Cerdanyola del Vallès", "Previous_Club": "Barcelona B", "Current_Club": "Fútbol Club Barcelona", "Coordinate": "41.491032 2.137497", "Latitude": 41.491032, "Longitude": 2.137497, "Country": "Spain" }, "geometry": { "type": "Point", "coordinates": [ 2.137497, 41.491032 ] } },
{ "type": "Feature", "properties": { "Number": 31, "Name": "Nili Perdomo", "Nat": "Espagne", "Pos": "M", "Height": 1.76, "Weight": 71, "Date_of_Birth": "18-02-94", "Birth_Place": "Las Palmas", "Previous_Club": "Las Palmas B", "Current_Club": "Fútbol Club Barcelona", "Coordinate": "27.958 -15.60623", "Latitude": 27.958, "Longitude": -15.60623, "Country": "Spain" }, "geometry": { "type": "Point", "coordinates": [ -15.60623, 27.958 ] } },
{ "type": "Feature", "properties": { "Number": 33, "Name": "Marlon", "Nat": "Brésil", "Pos": "D", "Height": 1.82, "Weight": 80, "Date_of_Birth": "07-09-95", "Birth_Place": "Duque de Caxias", "Previous_Club": "Fluminense", "Current_Club": "Fútbol Club Barcelona", "Coordinate": "-66.099551", "Latitude": -22.789622, "Longitude": -43.309929, "Country": "Spain" }, "geometry": { "type": "Point", "coordinates": [ -43.309929, -22.789622 ] } },
{ "type": "Feature", "properties": { "Number": 34, "Name": "Sergi Palencia", "Nat": "Espagne", "Pos": "D", "Height": 1.72, "Weight": 66, "Date_of_Birth": "23-03-96", "Birth_Place": "Badalona", "Previous_Club": "Barcelona B", "Current_Club": "Fútbol Club Barcelona", "Coordinate": "41.449354 2.248254", "Latitude": 41.449354, "Longitude": 2.248254, "Country": "Spain" }, "geometry": { "type": "Point", "coordinates": [ 2.248254, 41.449354 ] } },
{ "type": "Feature", "properties": { "Number": 35, "Name": "Borja López", "Nat": "Espagne", "Pos": "D", "Height": 1.92, "Weight": 83, "Date_of_Birth": "02-02-94", "Birth_Place": "Gijón", "Previous_Club": "Monaco", "Current_Club": "Fútbol Club Barcelona", "Coordinate": "43.545039 -5.662644", "Latitude": 43.545039, "Longitude": -5.662644, "Country": "Spain" }, "geometry": { "type": "Point", "coordinates": [ -5.662644, 43.545039 ] } },
{ "type": "Feature", "properties": { "Number": 39, "Name": "Marc Cardona", "Nat": "Espagne", "Pos": "F", "Height": 1.83, "Weight": 75, "Date_of_Birth": "08-07-95", "Birth_Place": "Lleida", "Previous_Club": "Atlético Sanluqueño", "Current_Club": "Fútbol Club Barcelona", "Coordinate": "41.614761 0.626784", "Latitude": 41.614761, "Longitude": 0.626784, "Country": "Spain" }, "geometry": { "type": "Point", "coordinates": [ 0.626784, 41.614761 ] } },
{ "type": "Feature", "properties": { "Number": 1, "Name": "Dani Giménez", "Nat": "Espagne", "Pos": "G", "Height": 1.82, "Weight": 77, "Date_of_Birth": "30-07-83", "Birth_Place": "Vigo", "Previous_Club": "Alcorcón", "Current_Club": "Real Betis Balompié", "Coordinate": "42.23766 -8.72472", "Latitude": 42.23766, "Longitude": -8.72472, "Country": "Spain" }, "geometry": { "type": "Point", "coordinates": [ -8.72472, 42.23766 ] } },
{ "type": "Feature", "properties": { "Number": 2, "Name": "Rafa Navarro", "Nat": "Espagne", "Pos": "D", "Height": 1.73, "Weight": 61, "Date_of_Birth": "23-02-94", "Birth_Place": "Valencina de la Concepción", "Previous_Club": "Betis B", "Current_Club": "Real Betis Balompié", "Coordinate": "37.417571 -6.073836", "Latitude": 37.417571, "Longitude": -6.073836, "Country": "Spain" }, "geometry": { "type": "Point", "coordinates": [ -6.073836, 37.417571 ] } },
{ "type": "Feature", "properties": { "Number": 3, "Name": "Álex Martínez", "Nat": "Espagne", "Pos": "D", "Height": 1.76, "Weight": 64, "Date_of_Birth": "12-08-90", "Birth_Place": "Seville", "Previous_Club": "Betis B", "Current_Club": "Real Betis Balompié", "Coordinate": "37.38863 -5.995317", "Latitude": 37.38863, "Longitude": -5.995317, "Country": "Spain" }, "geometry": { "type": "Point", "coordinates": [ -5.995317, 37.38863 ] } },
{ "type": "Feature", "properties": { "Number": 4, "Name": "Bruno", "Nat": "Espagne", "Pos": "D", "Height": 1.84, "Weight": 82, "Date_of_Birth": "24-05-90", "Birth_Place": "Las Galletas", "Previous_Club": "Tenerife", "Current_Club": "Real Betis Balompié", "Coordinate": "28.007898 -16.655708", "Latitude": 28.007898, "Longitude": -16.655708, "Country": "Spain" }, "geometry": { "type": "Point", "coordinates": [ -16.655708, 28.007898 ] } },
{ "type": "Feature", "properties": { "Number": 5, "Name": "Petros", "Nat": "Brésil", "Pos": "M", "Height": 1.82, "Weight": 78, "Date_of_Birth": "29-05-89", "Birth_Place": "Juazeiro", "Previous_Club": "Corinthians", "Current_Club": "Real Betis Balompié", "Coordinate": "-49.91773", "Latitude": -9.420438, "Longitude": -40.497292, "Country": "Spain" }, "geometry": { "type": "Point", "coordinates": [ -40.497292, -9.420438 ] } },
{ "type": "Feature", "properties": { "Number": 6, "Name": "Felipe Gutiérrez", "Nat": "Chili", "Pos": "M", "Height": 1.7, "Weight": 64, "Date_of_Birth": "08-10-90", "Birth_Place": "Valparaíso", "Previous_Club": "FC Twente", "Current_Club": "Real Betis Balompié", "Coordinate": "-104.66605", "Latitude": -33.046247, "Longitude": -71.619803, "Country": "Spain" }, "geometry": { "type": "Point", "coordinates": [ -71.619803, -33.046247 ] } },
{ "type": "Feature", "properties": { "Number": 7, "Name": "Rubén Pardo", "Nat": "Espagne", "Pos": "M", "Height": 1.75, "Weight": 70, "Date_of_Birth": "22-10-92", "Birth_Place": "Logroño", "Previous_Club": "Real Sociedad", "Current_Club": "Real Betis Balompié", "Coordinate": "42.46612 -2.439668", "Latitude": 42.46612, "Longitude": -2.439668, "Country": "Spain" }, "geometry": { "type": "Point", "coordinates": [ -2.439668, 42.46612 ] } },
{ "type": "Feature", "properties": { "Number": 8, "Name": "Jonas Martin", "Nat": "France", "Pos": "M", "Height": 1.82, "Weight": 70, "Date_of_Birth": "09-04-90", "Birth_Place": "Besançon", "Previous_Club": "Montpellier", "Current_Club": "Real Betis Balompié", "Coordinate": "47.237953 6.024325", "Latitude": 47.237953, "Longitude": 6.024325, "Country": "Spain" }, "geometry": { "type": "Point", "coordinates": [ 6.024325, 47.237953 ] } },
{ "type": "Feature", "properties": { "Number": 9, "Name": "Antonio Sanabria", "Nat": "Paraguay", "Pos": "F", "Height": 1.8, "Weight": 74, "Date_of_Birth": "04-03-96", "Birth_Place": "San Lorenzo", "Previous_Club": "Roma", "Current_Club": "Real Betis Balompié", "Coordinate": "42.383211 9.287966", "Latitude": 42.383211, "Longitude": 9.287966, "Country": "Spain" }, "geometry": { "type": "Point", "coordinates": [ 9.287966, 42.383211 ] } },
{ "type": "Feature", "properties": { "Number": 10, "Name": "Dani Ceballos", "Nat": "Espagne", "Pos": "M", "Height": 1.76, "Weight": 65, "Date_of_Birth": "07-08-96", "Birth_Place": "Seville", "Previous_Club": "Betis B", "Current_Club": "Real Betis Balompié", "Coordinate": "37.38863 -5.995317", "Latitude": 37.38863, "Longitude": -5.995317, "Country": "Spain" }, "geometry": { "type": "Point", "coordinates": [ -5.995317, 37.38863 ] } },
{ "type": "Feature", "properties": { "Number": 11, "Name": "Nahuel Leiva", "Nat": "Espagne", "Pos": "F", "Height": 1.74, "Weight": 67, "Date_of_Birth": "22-10-96", "Birth_Place": "Rosario", "Previous_Club": "Villarreal", "Current_Club": "Real Betis Balompié", "Coordinate": "-93.621041", "Latitude": -32.9595, "Longitude": -60.661541, "Country": "Spain" }, "geometry": { "type": "Point", "coordinates": [ -60.661541, -32.9595 ] } },
{ "type": "Feature", "properties": { "Number": 12, "Name": "Cristiano Piccini", "Nat": "Italie", "Pos": "D", "Height": 1.83, "Weight": 77, "Date_of_Birth": "26-09-92", "Birth_Place": "Florence", "Previous_Club": "Fiorentina", "Current_Club": "Real Betis Balompié", "Coordinate": "43.769871 11.255576", "Latitude": 43.769871, "Longitude": 11.255576, "Country": "Spain" }, "geometry": { "type": "Point", "coordinates": [ 11.255576, 43.769871 ] } },
{ "type": "Feature", "properties": { "Number": 13, "Name": "Antonio Adán", "Nat": "Espagne", "Pos": "G", "Height": 1.89, "Weight": 85, "Date_of_Birth": "13-05-87", "Birth_Place": "Madrid", "Previous_Club": "Cagliari", "Current_Club": "Real Betis Balompié", "Coordinate": "40.416705 -3.703582", "Latitude": 40.416705, "Longitude": -3.703582, "Country": "Spain" }, "geometry": { "type": "Point", "coordinates": [ -3.703582, 40.416705 ] } },
{ "type": "Feature", "properties": { "Number": 14, "Name": "Riza Durmisi", "Nat": "Danemark", "Pos": "D", "Height": 1.68, "Weight": 67, "Date_of_Birth": "08-01-94", "Birth_Place": "Copenhagen", "Previous_Club": "Brøndby", "Current_Club": "Real Betis Balompié", "Coordinate": "55.686724 12.570072", "Latitude": 55.686724, "Longitude": 12.570072, "Country": "Spain" }, "geometry": { "type": "Point", "coordinates": [ 12.570072, 55.686724 ] } },
{ "type": "Feature", "properties": { "Number": 15, "Name": "Ryan Donk", "Nat": "Pays-bas", "Pos": "D", "Height": 1.92, "Weight": 80, "Date_of_Birth": "30-03-86", "Birth_Place": "Amsterdam", "Previous_Club": "Galatasaray", "Current_Club": "Real Betis Balompié", "Coordinate": "52.374436 4.897996", "Latitude": 52.374436, "Longitude": 4.897996, "Country": "Spain" }, "geometry": { "type": "Point", "coordinates": [ 4.897996, 52.374436 ] } },
{ "type": "Feature", "properties": { "Number": 16, "Name": "Álvaro Cejudo", "Nat": "Espagne", "Pos": "M", "Height": 1.8, "Weight": 72, "Date_of_Birth": "29-01-84", "Birth_Place": "Puente Genil", "Previous_Club": "Osasuna", "Current_Club": "Real Betis Balompié", "Coordinate": "37.387395 -4.771624", "Latitude": 37.387395, "Longitude": -4.771624, "Country": "Spain" }, "geometry": { "type": "Point", "coordinates": [ -4.771624, 37.387395 ] } },
{ "type": "Feature", "properties": { "Number": 17, "Name": "Joaquín", "Nat": "Espagne", "Pos": "M", "Height": 1.79, "Weight": 75, "Date_of_Birth": "21-07-81", "Birth_Place": "Puerto de Santa Maria", "Previous_Club": "Fiorentina", "Current_Club": "Real Betis Balompié", "Coordinate": "36.601468 -6.238149", "Latitude": 36.601468, "Longitude": -6.238149, "Country": "Spain" }, "geometry": { "type": "Point", "coordinates": [ -6.238149, 36.601468 ] } },
{ "type": "Feature", "properties": { "Number": 18, "Name": "Roman Zozulya", "Nat": "Ukraine", "Pos": "F", "Height": 1.75, "Weight": 62, "Date_of_Birth": "17-11-89", "Birth_Place": "Kyiv", "Previous_Club": "Dnipro", "Current_Club": "Real Betis Balompié", "Coordinate": "50.450107 30.52405", "Latitude": 50.450107, "Longitude": 30.52405, "Country": "Spain" }, "geometry": { "type": "Point", "coordinates": [ 30.52405, 50.450107 ] } },
{ "type": "Feature", "properties": { "Number": 19, "Name": "Álex Alegría", "Nat": "Espagne", "Pos": "F", "Height": 1.89, "Weight": 82, "Date_of_Birth": "10-10-92", "Birth_Place": "Plasencia", "Previous_Club": "Betis B", "Current_Club": "Real Betis Balompié", "Coordinate": "40.030294 -6.090259", "Latitude": 40.030294, "Longitude": -6.090259, "Country": "Spain" }, "geometry": { "type": "Point", "coordinates": [ -6.090259, 40.030294 ] } },
{ "type": "Feature", "properties": { "Number": 20, "Name": "Germán Pezzella", "Nat": "Argentine", "Pos": "D", "Height": 1.86, "Weight": 81, "Date_of_Birth": "27-06-91", "Birth_Place": "Bahía Blanca", "Previous_Club": "River Plate", "Current_Club": "Real Betis Balompié", "Coordinate": "-100.984481", "Latitude": -38.718236, "Longitude": -62.266245, "Country": "Spain" }, "geometry": { "type": "Point", "coordinates": [ -62.266245, -38.718236 ] } },
{ "type": "Feature", "properties": { "Number": 21, "Name": "Alin Toşca", "Nat": "Roumanie", "Pos": "D", "Height": 1.8, "Weight": 75, "Date_of_Birth": "14-03-92", "Birth_Place": "Alexandria", "Previous_Club": "Steaua Bucureşti", "Current_Club": "Real Betis Balompié", "Coordinate": "31.199004 29.894379", "Latitude": 31.199004, "Longitude": 29.894379, "Country": "Spain" }, "geometry": { "type": "Point", "coordinates": [ 29.894379, 31.199004 ] } },
{ "type": "Feature", "properties": { "Number": 22, "Name": "Darko Brašanac", "Nat": "Serbie", "Pos": "M", "Height": 1.78, "Weight": 73, "Date_of_Birth": "12-02-92", "Birth_Place": "Belgrade", "Previous_Club": "Partizan Belgrade", "Current_Club": "Real Betis Balompié", "Coordinate": "44.817879 20.456809", "Latitude": 44.817879, "Longitude": 20.456809, "Country": "Spain" }, "geometry": { "type": "Point", "coordinates": [ 20.456809, 44.817879 ] } },
{ "type": "Feature", "properties": { "Number": 23, "Name": "Aïssa Mandi", "Nat": "Algérie", "Pos": "D", "Height": 1.86, "Weight": 78, "Date_of_Birth": "22-10-91", "Birth_Place": "Châlons-en-Champagne", "Previous_Club": "Reims", "Current_Club": "Real Betis Balompié", "Coordinate": "48.956622 4.362885", "Latitude": 48.956622, "Longitude": 4.362885, "Country": "Spain" }, "geometry": { "type": "Point", "coordinates": [ 4.362885, 48.956622 ] } },
{ "type": "Feature", "properties": { "Number": 24, "Name": "Rubén Castro", "Nat": "Espagne", "Pos": "F", "Height": 1.74, "Weight": 72, "Date_of_Birth": "27-06-81", "Birth_Place": "Las Palmas", "Previous_Club": "Deportivo La Coruña", "Current_Club": "Real Betis Balompié", "Coordinate": "27.958 -15.60623", "Latitude": 27.958, "Longitude": -15.60623, "Country": "Spain" }, "geometry": { "type": "Point", "coordinates": [ -15.60623, 27.958 ] } },
{ "type": "Feature", "properties": { "Number": 25, "Name": "Manu", "Nat": "Espagne", "Pos": "G", "Height": 1.82, "Weight": 75, "Date_of_Birth": "29-09-81", "Birth_Place": "Madrid", "Previous_Club": "Zaragoza", "Current_Club": "Real Betis Balompié", "Coordinate": "40.416705 -3.703582", "Latitude": 40.416705, "Longitude": -3.703582, "Country": "Spain" }, "geometry": { "type": "Point", "coordinates": [ -3.703582, 40.416705 ] } },
{ "type": "Feature", "properties": { "Number": 28, "Name": "José Carlos", "Nat": "Espagne", "Pos": "D", "Height": 1.82, "Weight": 75, "Date_of_Birth": "10-05-96", "Birth_Place": "Paradas", "Previous_Club": "Betis B", "Current_Club": "Real Betis Balompié", "Coordinate": "37.289492 -5.496965", "Latitude": 37.289492, "Longitude": -5.496965, "Country": "Spain" }, "geometry": { "type": "Point", "coordinates": [ -5.496965, 37.289492 ] } },
{ "type": "Feature", "properties": { "Number": 29, "Name": "David Hinojosa", "Nat": "Espagne", "Pos": "M", "Height": 1.75, "Weight": 68, "Date_of_Birth": "17-02-96", "Birth_Place": "Arcos de la Frontera", "Previous_Club": "Betis B", "Current_Club": "Real Betis Balompié", "Coordinate": "36.748648 -5.806047", "Latitude": 36.748648, "Longitude": -5.806047, "Country": "Spain" }, "geometry": { "type": "Point", "coordinates": [ -5.806047, 36.748648 ] } },
{ "type": "Feature", "properties": { "Number": 31, "Name": "Álvaro Valles", "Nat": "Espagne", "Pos": "G", "Height": 1.9, "Weight": 78, "Date_of_Birth": "25-05-97", "Birth_Place": "La Rinconada", "Previous_Club": "Betis B", "Current_Club": "Real Betis Balompié", "Coordinate": "37.48672 -5.981487", "Latitude": 37.48672, "Longitude": -5.981487, "Country": "Spain" }, "geometry": { "type": "Point", "coordinates": [ -5.981487, 37.48672 ] } },
{ "type": "Feature", "properties": { "Number": 1, "Name": "Sergio Álvarez", "Nat": "Espagne", "Pos": "G", "Height": 1.79, "Weight": 75, "Date_of_Birth": "03-08-86", "Birth_Place": "Catoria", "Previous_Club": "Celta B", "Current_Club": "Real Club Celta de Vigo", "Coordinate": "39.78373 -100.445882", "Latitude": 39.78373, "Longitude": -100.445882, "Country": "Spain" }, "geometry": { "type": "Point", "coordinates": [ -100.445882, 39.78373 ] } },
{ "type": "Feature", "properties": { "Number": 2, "Name": "Hugo Mallo", "Nat": "Espagne", "Pos": "D", "Height": 1.81, "Weight": 78, "Date_of_Birth": "22-06-91", "Birth_Place": "Marín", "Previous_Club": "Celta B", "Current_Club": "Real Club Celta de Vigo", "Coordinate": "25.886143 -100.023315", "Latitude": 25.886143, "Longitude": -100.023315, "Country": "Spain" }, "geometry": { "type": "Point", "coordinates": [ -100.023315, 25.886143 ] } },
{ "type": "Feature", "properties": { "Number": 3, "Name": "Andreu Fontàs", "Nat": "Espagne", "Pos": "D", "Height": 1.81, "Weight": 72, "Date_of_Birth": "14-11-89", "Birth_Place": "Banyoles", "Previous_Club": "Barcelona", "Current_Club": "Real Club Celta de Vigo", "Coordinate": "42.118105 2.765363", "Latitude": 42.118105, "Longitude": 2.765363, "Country": "Spain" }, "geometry": { "type": "Point", "coordinates": [ 2.765363, 42.118105 ] } },
{ "type": "Feature", "properties": { "Number": 4, "Name": "Pape Cheikh", "Nat": "Espagne", "Pos": "M", "Height": 1.8, "Weight": 68, "Date_of_Birth": "08-08-97", "Birth_Place": "Dakar", "Previous_Club": "Celta B", "Current_Club": "Real Club Celta de Vigo", "Coordinate": "14.693425 -17.447938", "Latitude": 14.693425, "Longitude": -17.447938, "Country": "Spain" }, "geometry": { "type": "Point", "coordinates": [ -17.447938, 14.693425 ] } },
{ "type": "Feature", "properties": { "Number": 5, "Name": "Marcelo Díaz", "Nat": "Chili", "Pos": "M", "Height": 1.66, "Weight": 64, "Date_of_Birth": "30-12-86", "Birth_Place": "Santiago", "Previous_Club": "Hamburg", "Current_Club": "Real Club Celta de Vigo", "Coordinate": "-104.088369", "Latitude": -33.437913, "Longitude": -70.650456, "Country": "Spain" }, "geometry": { "type": "Point", "coordinates": [ -70.650456, -33.437913 ] } },
{ "type": "Feature", "properties": { "Number": 6, "Name": "Nemanja Radoja", "Nat": "Serbie", "Pos": "D", "Height": 1.86, "Weight": 77, "Date_of_Birth": "06-02-93", "Birth_Place": "Novi Sad", "Previous_Club": "Vojvodina", "Current_Club": "Real Club Celta de Vigo", "Coordinate": "45.255105 19.845081", "Latitude": 45.255105, "Longitude": 19.845081, "Country": "Spain" }, "geometry": { "type": "Point", "coordinates": [ 19.845081, 45.255105 ] } },
{ "type": "Feature", "properties": { "Number": 7, "Name": "Theo Bongonda", "Nat": "Belgique", "Pos": "F", "Height": 1.77, "Weight": 70, "Date_of_Birth": "20-11-95", "Birth_Place": "Charleroi", "Previous_Club": "Zulte-Waregem", "Current_Club": "Real Club Celta de Vigo", "Coordinate": "50.412033 4.443624", "Latitude": 50.412033, "Longitude": 4.443624, "Country": "Spain" }, "geometry": { "type": "Point", "coordinates": [ 4.443624, 50.412033 ] } },
{ "type": "Feature", "properties": { "Number": 8, "Name": "Pablo Hernández", "Nat": "Chili", "Pos": "M", "Height": 1.84, "Weight": 79, "Date_of_Birth": "24-10-86", "Birth_Place": "Capital Federal", "Previous_Club": "O'Higgins", "Current_Club": "Real Club Celta de Vigo", "Coordinate": "-93.058848", "Latitude": -34.612869, "Longitude": -58.445979, "Country": "Spain" }, "geometry": { "type": "Point", "coordinates": [ -58.445979, -34.612869 ] } },
{ "type": "Feature", "properties": { "Number": 9, "Name": "John Guidetti", "Nat": "Suède", "Pos": "F", "Height": 1.81, "Weight": 79, "Date_of_Birth": "15-04-92", "Birth_Place": "Stockholm", "Previous_Club": "Manchester C", "Current_Club": "Real Club Celta de Vigo", "Coordinate": "59.325117 18.071094", "Latitude": 59.325117, "Longitude": 18.071094, "Country": "Spain" }, "geometry": { "type": "Point", "coordinates": [ 18.071094, 59.325117 ] } },
{ "type": "Feature", "properties": { "Number": 10, "Name": "Iago Aspas", "Nat": "Espagne", "Pos": "F", "Height": 1.76, "Weight": 67, "Date_of_Birth": "11-08-87", "Birth_Place": "Moaña", "Previous_Club": "Sevilla", "Current_Club": "Real Club Celta de Vigo", "Coordinate": "42.281655 -8.735687", "Latitude": 42.281655, "Longitude": -8.735687, "Country": "Spain" }, "geometry": { "type": "Point", "coordinates": [ -8.735687, 42.281655 ] } },
{ "type": "Feature", "properties": { "Number": 11, "Name": "Pione Sisto", "Nat": "Danemark", "Pos": "M", "Height": 1.71, "Weight": 65, "Date_of_Birth": "04-02-95", "Birth_Place": "Kampala", "Previous_Club": "FC Midtjylland", "Current_Club": "Real Club Celta de Vigo", "Coordinate": "0.317714 32.581354", "Latitude": 0.317714, "Longitude": 32.581354, "Country": "Spain" }, "geometry": { "type": "Point", "coordinates": [ 32.581354, 0.317714 ] } },
{ "type": "Feature", "properties": { "Number": 12, "Name": "Claudio Beauvue", "Nat": "France", "Pos": "F", "Height": 1.74, "Weight": 66, "Date_of_Birth": "16-04-88", "Birth_Place": "Saint-Claude", "Previous_Club": "Lyon", "Current_Club": "Real Club Celta de Vigo", "Coordinate": "46.387799 5.86415", "Latitude": 46.387799, "Longitude": 5.86415, "Country": "Spain" }, "geometry": { "type": "Point", "coordinates": [ 5.86415, 46.387799 ] } },
{ "type": "Feature", "properties": { "Number": 13, "Name": "Rubén Blanco", "Nat": "Espagne", "Pos": "G", "Height": 1.88, "Weight": 70, "Date_of_Birth": "25-07-95", "Birth_Place": "Vigo", "Previous_Club": "Celta B", "Current_Club": "Real Club Celta de Vigo", "Coordinate": "42.23766 -8.72472", "Latitude": 42.23766, "Longitude": -8.72472, "Country": "Spain" }, "geometry": { "type": "Point", "coordinates": [ -8.72472, 42.23766 ] } },
{ "type": "Feature", "properties": { "Number": 15, "Name": "Álvaro Lemos", "Nat": "Espagne", "Pos": "D", "Height": 1.75, "Weight": 72, "Date_of_Birth": "30-03-93", "Birth_Place": "La Coruña", "Previous_Club": "Lugo", "Current_Club": "Real Club Celta de Vigo", "Coordinate": "43.371209 -8.395877", "Latitude": 43.371209, "Longitude": -8.395877, "Country": "Spain" }, "geometry": { "type": "Point", "coordinates": [ -8.395877, 43.371209 ] } },
{ "type": "Feature", "properties": { "Number": 16, "Name": "Jozabed", "Nat": "Espagne", "Pos": "M", "Height": 1.8, "Weight": 67, "Date_of_Birth": "08-03-91", "Birth_Place": "Mairena del Alcor", "Previous_Club": "Fulham", "Current_Club": "Real Club Celta de Vigo", "Coordinate": "37.373197 -5.747466", "Latitude": 37.373197, "Longitude": -5.747466, "Country": "Spain" }, "geometry": { "type": "Point", "coordinates": [ -5.747466, 37.373197 ] } },
{ "type": "Feature", "properties": { "Number": 17, "Name": "Andrew Hjulsager", "Nat": "Danemark", "Pos": "M", "Height": 1.77, "Weight": 71, "Date_of_Birth": "15-01-95", "Birth_Place": "Danemark", "Previous_Club": "Brøndby", "Current_Club": "Real Club Celta de Vigo", "Coordinate": "55.670249 10.333328", "Latitude": 55.670249, "Longitude": 10.333328, "Country": "Spain" }, "geometry": { "type": "Point", "coordinates": [ 10.333328, 55.670249 ] } },
{ "type": "Feature", "properties": { "Number": 18, "Name": "Daniel Wass", "Nat": "Danemark", "Pos": "D", "Height": 1.81, "Weight": 74, "Date_of_Birth": "31-05-89", "Birth_Place": "Gladsaxe", "Previous_Club": "Évian TG", "Current_Club": "Real Club Celta de Vigo", "Coordinate": "55.738379 12.469611", "Latitude": 55.738379, "Longitude": 12.469611, "Country": "Spain" }, "geometry": { "type": "Point", "coordinates": [ 12.469611, 55.738379 ] } },
{ "type": "Feature", "properties": { "Number": 19, "Name": "Johny", "Nat": "Espagne", "Pos": "D", "Height": 1.75, "Weight": 70, "Date_of_Birth": "03-03-94", "Birth_Place": "Vigo", "Previous_Club": "Celta B", "Current_Club": "Real Club Celta de Vigo", "Coordinate": "42.23766 -8.72472", "Latitude": 42.23766, "Longitude": -8.72472, "Country": "Spain" }, "geometry": { "type": "Point", "coordinates": [ -8.72472, 42.23766 ] } },
{ "type": "Feature", "properties": { "Number": 20, "Name": "Sergi Gómez", "Nat": "Espagne", "Pos": "D", "Height": 1.81, "Weight": 76, "Date_of_Birth": "28-07-92", "Birth_Place": "Arenys de Mar", "Previous_Club": "Barcelona B", "Current_Club": "Real Club Celta de Vigo", "Coordinate": "41.579703 2.549156", "Latitude": 41.579703, "Longitude": 2.549156, "Country": "Spain" }, "geometry": { "type": "Point", "coordinates": [ 2.549156, 41.579703 ] } },
{ "type": "Feature", "properties": { "Number": 21, "Name": "Carles Planas", "Nat": "Espagne", "Pos": "D", "Height": 1.8, "Weight": 80, "Date_of_Birth": "04-03-91", "Birth_Place": "Sant Celoni", "Previous_Club": "Barcelona B", "Current_Club": "Real Club Celta de Vigo", "Coordinate": "41.690137 2.49167", "Latitude": 41.690137, "Longitude": 2.49167, "Country": "Spain" }, "geometry": { "type": "Point", "coordinates": [ 2.49167, 41.690137 ] } },
{ "type": "Feature", "properties": { "Number": 22, "Name": "Gustavo Cabral", "Nat": "Argentine", "Pos": "D", "Height": 1.82, "Weight": 81, "Date_of_Birth": "14-10-85", "Birth_Place": "Isidro Casanova", "Previous_Club": "Arsenal [ARG]", "Current_Club": "Real Club Celta de Vigo", "Coordinate": "-93.290949", "Latitude": -34.704788, "Longitude": -58.586161, "Country": "Spain" }, "geometry": { "type": "Point", "coordinates": [ -58.586161, -34.704788 ] } },
{ "type": "Feature", "properties": { "Number": 23, "Name": "Josep Señé", "Nat": "Espagne", "Pos": "F", "Height": 1.85, "Weight": 74, "Date_of_Birth": "10-12-91", "Birth_Place": "Barcelona", "Previous_Club": "Oviedo", "Current_Club": "Real Club Celta de Vigo", "Coordinate": "41.38256 2.177135", "Latitude": 41.38256, "Longitude": 2.177135, "Country": "Spain" }, "geometry": { "type": "Point", "coordinates": [ 2.177135, 41.38256 ] } },
{ "type": "Feature", "properties": { "Number": 24, "Name": "Facundo Roncaglia", "Nat": "Argentine", "Pos": "D", "Height": 1.79, "Weight": 76, "Date_of_Birth": "10-02-87", "Birth_Place": "Chajarí", "Previous_Club": "Fiorentina", "Current_Club": "Real Club Celta de Vigo", "Coordinate": "-88.741473", "Latitude": -30.756574, "Longitude": -57.984899, "Country": "Spain" }, "geometry": { "type": "Point", "coordinates": [ -57.984899, -30.756574 ] } },
{ "type": "Feature", "properties": { "Number": 25, "Name": "Giuseppe Rossi", "Nat": "Italie", "Pos": "F", "Height": 1.73, "Weight": 73, "Date_of_Birth": "01-02-87", "Birth_Place": "Teaneck", "Previous_Club": "Fiorentina", "Current_Club": "Real Club Celta de Vigo", "Coordinate": "40.897599 -74.015973", "Latitude": 40.897599, "Longitude": -74.015973, "Country": "Spain" }, "geometry": { "type": "Point", "coordinates": [ -74.015973, 40.897599 ] } },
{ "type": "Feature", "properties": { "Number": 27, "Name": "Iván Villar", "Nat": "Espagne", "Pos": "G", "Height": 1.83, "Weight": 76, "Date_of_Birth": "09-07-97", "Birth_Place": "Aldán", "Previous_Club": "Celta B", "Current_Club": "Real Club Celta de Vigo", "Coordinate": "62.589159 135.612637", "Latitude": 62.589159, "Longitude": 135.612637, "Country": "Spain" }, "geometry": { "type": "Point", "coordinates": [ 135.612637, 62.589159 ] } },
{ "type": "Feature", "properties": { "Number": 29, "Name": "Diego Alende", "Nat": "Espagne", "Pos": "D", "Height": null, "Weight": null, "Date_of_Birth": "25-08-97", "Birth_Place": "Santiago de Compostela", "Previous_Club": "Celta B", "Current_Club": "Real Club Celta de Vigo", "Coordinate": "42.880422 -8.545861", "Latitude": 42.880422, "Longitude": -8.545861, "Country": "Spain" }, "geometry": { "type": "Point", "coordinates": [ -8.545861, 42.880422 ] } },
{ "type": "Feature", "properties": { "Number": 30, "Name": "Brais Méndez", "Nat": "Espagne", "Pos": "F", "Height": null, "Weight": null, "Date_of_Birth": "07-01-97", "Birth_Place": "Espagne", "Previous_Club": "Celta B", "Current_Club": "Real Club Celta de Vigo", "Coordinate": "40.002803 -4.003104", "Latitude": 40.002803, "Longitude": -4.003104, "Country": "Spain" }, "geometry": { "type": "Point", "coordinates": [ -4.003104, 40.002803 ] } },
{ "type": "Feature", "properties": { "Number": 31, "Name": "Ángel Fraga", "Nat": "Espagne", "Pos": "G", "Height": null, "Weight": null, "Date_of_Birth": "13-05-96", "Birth_Place": "Espagne", "Previous_Club": "Celta B", "Current_Club": "Real Club Celta de Vigo", "Coordinate": "40.002803 -4.003104", "Latitude": 40.002803, "Longitude": -4.003104, "Country": "Spain" }, "geometry": { "type": "Point", "coordinates": [ -4.003104, 40.002803 ] } },
{ "type": "Feature", "properties": { "Number": 32, "Name": "Borja Fernández", "Nat": "Espagne", "Pos": "M", "Height": 1.77, "Weight": 71, "Date_of_Birth": "16-08-95", "Birth_Place": "Vigo", "Previous_Club": "Celta B", "Current_Club": "Real Club Celta de Vigo", "Coordinate": "42.23766 -8.72472", "Latitude": 42.23766, "Longitude": -8.72472, "Country": "Spain" }, "geometry": { "type": "Point", "coordinates": [ -8.72472, 42.23766 ] } },
{ "type": "Feature", "properties": { "Number": 1, "Name": "Germán Lux", "Nat": "Argentine", "Pos": "G", "Height": 1.86, "Weight": 77, "Date_of_Birth": "06-07-82", "Birth_Place": "Carcarañá", "Previous_Club": "Mallorca", "Current_Club": "Real Club Deportivo de La Coruña", "Coordinate": "-94.005079", "Latitude": -32.85635, "Longitude": -61.148729, "Country": "Spain" }, "geometry": { "type": "Point", "coordinates": [ -61.148729, -32.85635 ] } },
{ "type": "Feature", "properties": { "Number": 2, "Name": "Juanfran Moreno", "Nat": "Espagne", "Pos": "M", "Height": 1.79, "Weight": 71, "Date_of_Birth": "11-09-88", "Birth_Place": "Madrid", "Previous_Club": "Watford", "Current_Club": "Real Club Deportivo de La Coruña", "Coordinate": "40.416705 -3.703582", "Latitude": 40.416705, "Longitude": -3.703582, "Country": "Spain" }, "geometry": { "type": "Point", "coordinates": [ -3.703582, 40.416705 ] } },
{ "type": "Feature", "properties": { "Number": 3, "Name": "Fernando Navarro", "Nat": "Espagne", "Pos": "D", "Height": 1.78, "Weight": 70, "Date_of_Birth": "25-06-82", "Birth_Place": "Barcelona", "Previous_Club": "Sevilla", "Current_Club": "Real Club Deportivo de La Coruña", "Coordinate": "41.38256 2.177135", "Latitude": 41.38256, "Longitude": 2.177135, "Country": "Spain" }, "geometry": { "type": "Point", "coordinates": [ 2.177135, 41.38256 ] } },
{ "type": "Feature", "properties": { "Number": 4, "Name": "Alex Bergantiños", "Nat": "Espagne", "Pos": "M", "Height": 1.77, "Weight": 71, "Date_of_Birth": "07-06-85", "Birth_Place": "La Coruña", "Previous_Club": "Deportivo B", "Current_Club": "Real Club Deportivo de La Coruña", "Coordinate": "43.371209 -8.395877", "Latitude": 43.371209, "Longitude": -8.395877, "Country": "Spain" }, "geometry": { "type": "Point", "coordinates": [ -8.395877, 43.371209 ] } },
{ "type": "Feature", "properties": { "Number": 5, "Name": "Pedro Mosquera", "Nat": "Espagne", "Pos": "M", "Height": 1.83, "Weight": 77, "Date_of_Birth": "21-04-88", "Birth_Place": "La Coruña", "Previous_Club": "Elche", "Current_Club": "Real Club Deportivo de La Coruña", "Coordinate": "43.371209 -8.395877", "Latitude": 43.371209, "Longitude": -8.395877, "Country": "Spain" }, "geometry": { "type": "Point", "coordinates": [ -8.395877, 43.371209 ] } },
{ "type": "Feature", "properties": { "Number": 6, "Name": "Raúl Albentosa", "Nat": "Espagne", "Pos": "D", "Height": 1.93, "Weight": 89, "Date_of_Birth": "07-09-88", "Birth_Place": "Alzira", "Previous_Club": "Derby Co", "Current_Club": "Real Club Deportivo de La Coruña", "Coordinate": "36.775348 3.060066", "Latitude": 36.775348, "Longitude": 3.060066, "Country": "Spain" }, "geometry": { "type": "Point", "coordinates": [ 3.060066, 36.775348 ] } },
{ "type": "Feature", "properties": { "Number": 7, "Name": "Joselu", "Nat": "Espagne", "Pos": "F", "Height": 1.91, "Weight": 79, "Date_of_Birth": "27-03-90", "Birth_Place": "Stuttgart", "Previous_Club": "Stoke C", "Current_Club": "Real Club Deportivo de La Coruña", "Coordinate": "48.778449 9.180013", "Latitude": 48.778449, "Longitude": 9.180013, "Country": "Spain" }, "geometry": { "type": "Point", "coordinates": [ 9.180013, 48.778449 ] } },
{ "type": "Feature", "properties": { "Number": 8, "Name": "Emre Çolak", "Nat": "Turquie", "Pos": "M", "Height": 1.68, "Weight": 63, "Date_of_Birth": "20-05-91", "Birth_Place": "Eminönü", "Previous_Club": "Galatasaray", "Current_Club": "Real Club Deportivo de La Coruña", "Coordinate": "39.78373 -100.445882", "Latitude": 39.78373, "Longitude": -100.445882, "Country": "Spain" }, "geometry": { "type": "Point", "coordinates": [ -100.445882, 39.78373 ] } },
{ "type": "Feature", "properties": { "Number": 9, "Name": "Marlos Moreno", "Nat": "Colombie", "Pos": "F", "Height": 1.73, "Weight": 67, "Date_of_Birth": "20-09-96", "Birth_Place": "Medellín", "Previous_Club": "Manchester C", "Current_Club": "Real Club Deportivo de La Coruña", "Coordinate": "6.244338 -75.573553", "Latitude": 6.244338, "Longitude": -75.573553, "Country": "Spain" }, "geometry": { "type": "Point", "coordinates": [ -75.573553, 6.244338 ] } },
{ "type": "Feature", "properties": { "Number": 10, "Name": "Florin Andone", "Nat": "Roumanie", "Pos": "F", "Height": 1.83, "Weight": 73, "Date_of_Birth": "11-04-93", "Birth_Place": "Joldeşti", "Previous_Club": "Córdoba", "Current_Club": "Real Club Deportivo de La Coruña", "Coordinate": "47.559969 26.577169", "Latitude": 47.559969, "Longitude": 26.577169, "Country": "Spain" }, "geometry": { "type": "Point", "coordinates": [ 26.577169, 47.559969 ] } },
{ "type": "Feature", "properties": { "Number": 11, "Name": "Carles Gil", "Nat": "Espagne", "Pos": "M", "Height": 1.7, "Weight": 69, "Date_of_Birth": "22-11-92", "Birth_Place": "Valencia", "Previous_Club": "Aston Villa", "Current_Club": "Real Club Deportivo de La Coruña", "Coordinate": "39.469901 -0.375951", "Latitude": 39.469901, "Longitude": -0.375951, "Country": "Spain" }, "geometry": { "type": "Point", "coordinates": [ -0.375951, 39.469901 ] } },
{ "type": "Feature", "properties": { "Number": 12, "Name": "Sidnei", "Nat": "Brésil", "Pos": "D", "Height": 1.85, "Weight": 80, "Date_of_Birth": "23-08-89", "Birth_Place": "Alegrete", "Previous_Club": "Benfica", "Current_Club": "Real Club Deportivo de La Coruña", "Coordinate": "-85.585028", "Latitude": -29.790166, "Longitude": -55.794862, "Country": "Spain" }, "geometry": { "type": "Point", "coordinates": [ -55.794862, -29.790166 ] } },
{ "type": "Feature", "properties": { "Number": 13, "Name": "Przemysław Tytoń", "Nat": "Pologne", "Pos": "G", "Height": 1.95, "Weight": 80, "Date_of_Birth": "04-01-87", "Birth_Place": "Zamość", "Previous_Club": "Stuttgart", "Current_Club": "Real Club Deportivo de La Coruña", "Coordinate": "50.717063 23.252565", "Latitude": 50.717063, "Longitude": 23.252565, "Country": "Spain" }, "geometry": { "type": "Point", "coordinates": [ 23.252565, 50.717063 ] } },
{ "type": "Feature", "properties": { "Number": 14, "Name": "Alejandro Arribas", "Nat": "Espagne", "Pos": "D", "Height": 1.82, "Weight": 75, "Date_of_Birth": "01-05-89", "Birth_Place": "Madrid", "Previous_Club": "Sevilla", "Current_Club": "Real Club Deportivo de La Coruña", "Coordinate": "40.416705 -3.703582", "Latitude": 40.416705, "Longitude": -3.703582, "Country": "Spain" }, "geometry": { "type": "Point", "coordinates": [ -3.703582, 40.416705 ] } },
{ "type": "Feature", "properties": { "Number": 15, "Name": "Laure", "Nat": "Espagne", "Pos": "D", "Height": 1.66, "Weight": 68, "Date_of_Birth": "22-03-85", "Birth_Place": "Madrid", "Previous_Club": "Deportivo B", "Current_Club": "Real Club Deportivo de La Coruña", "Coordinate": "40.416705 -3.703582", "Latitude": 40.416705, "Longitude": -3.703582, "Country": "Spain" }, "geometry": { "type": "Point", "coordinates": [ -3.703582, 40.416705 ] } },
{ "type": "Feature", "properties": { "Number": 16, "Name": "Luisinho", "Nat": "Portugal", "Pos": "D", "Height": 1.72, "Weight": 61, "Date_of_Birth": "05-05-85", "Birth_Place": "Porto", "Previous_Club": "Benfica", "Current_Club": "Real Club Deportivo de La Coruña", "Coordinate": "41.149451 -8.610788", "Latitude": 41.149451, "Longitude": -8.610788, "Country": "Spain" }, "geometry": { "type": "Point", "coordinates": [ -8.610788, 41.149451 ] } },
{ "type": "Feature", "properties": { "Number": 19, "Name": "Fayçal Fajr", "Nat": "Maroc", "Pos": "M", "Height": 1.78, "Weight": 72, "Date_of_Birth": "01-08-88", "Birth_Place": "Rouen", "Previous_Club": "Elche", "Current_Club": "Real Club Deportivo de La Coruña", "Coordinate": "49.440459 1.093966", "Latitude": 49.440459, "Longitude": 1.093966, "Country": "Spain" }, "geometry": { "type": "Point", "coordinates": [ 1.093966, 49.440459 ] } },
{ "type": "Feature", "properties": { "Number": 20, "Name": "Guilherme", "Nat": "Brésil", "Pos": "M", "Height": 1.78, "Weight": 78, "Date_of_Birth": "05-04-91", "Birth_Place": "Santo André", "Previous_Club": "Udinese", "Current_Club": "Real Club Deportivo de La Coruña", "Coordinate": "-70.189589", "Latitude": -23.657339, "Longitude": -46.53225, "Country": "Spain" }, "geometry": { "type": "Point", "coordinates": [ -46.53225, -23.657339 ] } },
{ "type": "Feature", "properties": { "Number": 21, "Name": "Bruno Gama", "Nat": "Portugal", "Pos": "M", "Height": 1.77, "Weight": 71, "Date_of_Birth": "15-11-87", "Birth_Place": "Vila Verde", "Previous_Club": "Dnipro Dnipropetrovsk", "Current_Club": "Real Club Deportivo de La Coruña", "Coordinate": "41.669743 -8.465445", "Latitude": 41.669743, "Longitude": -8.465445, "Country": "Spain" }, "geometry": { "type": "Point", "coordinates": [ -8.465445, 41.669743 ] } },
{ "type": "Feature", "properties": { "Number": 22, "Name": "Celso Borges", "Nat": "Costa Rica", "Pos": "M", "Height": 1.86, "Weight": 81, "Date_of_Birth": "27-05-88", "Birth_Place": "San José [CRC]", "Previous_Club": "AIK", "Current_Club": "Real Club Deportivo de La Coruña", "Coordinate": "39.78373 -100.445882", "Latitude": 39.78373, "Longitude": -100.445882, "Country": "Spain" }, "geometry": { "type": "Point", "coordinates": [ -100.445882, 39.78373 ] } },
{ "type": "Feature", "properties": { "Number": 23, "Name": "Gaël Kakuta", "Nat": "France", "Pos": "F", "Height": 1.73, "Weight": 65, "Date_of_Birth": "21-06-91", "Birth_Place": "Lille", "Previous_Club": "Hebei China Fortune", "Current_Club": "Real Club Deportivo de La Coruña", "Coordinate": "50.630509 3.070641", "Latitude": 50.630509, "Longitude": 3.070641, "Country": "Spain" }, "geometry": { "type": "Point", "coordinates": [ 3.070641, 50.630509 ] } },
{ "type": "Feature", "properties": { "Number": 24, "Name": "Ola John", "Nat": "Pays-bas", "Pos": "F", "Height": 1.8, "Weight": 80, "Date_of_Birth": "19-05-92", "Birth_Place": "Zwedru", "Previous_Club": "Benfica", "Current_Club": "Real Club Deportivo de La Coruña", "Coordinate": "6.068584 -8.133906", "Latitude": 6.068584, "Longitude": -8.133906, "Country": "Spain" }, "geometry": { "type": "Point", "coordinates": [ -8.133906, 6.068584 ] } },
{ "type": "Feature", "properties": { "Number": 25, "Name": "Davy Roef", "Nat": "Belgique", "Pos": "G", "Height": 1.87, "Weight": 84, "Date_of_Birth": "06-02-94", "Birth_Place": "Antwerp", "Previous_Club": "Anderlecht", "Current_Club": "Real Club Deportivo de La Coruña", "Coordinate": "51.22111 4.399708", "Latitude": 51.22111, "Longitude": 4.399708, "Country": "Spain" }, "geometry": { "type": "Point", "coordinates": [ 4.399708, 51.22111 ] } },
{ "type": "Feature", "properties": { "Number": 26, "Name": "Nacho Monsalve", "Nat": "Espagne", "Pos": "D", "Height": null, "Weight": null, "Date_of_Birth": "27-04-94", "Birth_Place": "Madrid", "Previous_Club": "Atlético Madrid B", "Current_Club": "Real Club Deportivo de La Coruña", "Coordinate": "40.416705 -3.703582", "Latitude": 40.416705, "Longitude": -3.703582, "Country": "Spain" }, "geometry": { "type": "Point", "coordinates": [ -3.703582, 40.416705 ] } },
{ "type": "Feature", "properties": { "Number": 28, "Name": "Pinchi", "Nat": "Espagne", "Pos": "M", "Height": null, "Weight": null, "Date_of_Birth": "17-06-96", "Birth_Place": "La Coruña", "Previous_Club": "Deportivo B", "Current_Club": "Real Club Deportivo de La Coruña", "Coordinate": "43.371209 -8.395877", "Latitude": 43.371209, "Longitude": -8.395877, "Country": "Spain" }, "geometry": { "type": "Point", "coordinates": [ -8.395877, 43.371209 ] } },
{ "type": "Feature", "properties": { "Number": 29, "Name": "Jardel", "Nat": "Portugal", "Pos": "F", "Height": null, "Weight": null, "Date_of_Birth": "20-09-97", "Birth_Place": "Portugal", "Previous_Club": "Deportivo B", "Current_Club": "Real Club Deportivo de La Coruña", "Coordinate": "39.430125 -8.560792", "Latitude": 39.430125, "Longitude": -8.560792, "Country": "Spain" }, "geometry": { "type": "Point", "coordinates": [ -8.560792, 39.430125 ] } },
{ "type": "Feature", "properties": { "Number": 1, "Name": "Yoel", "Nat": "Espagne", "Pos": "G", "Height": 1.85, "Weight": 78, "Date_of_Birth": "28-08-88", "Birth_Place": "Vigo", "Previous_Club": "Valencia", "Current_Club": "Sociedad Deportiva Eibar", "Coordinate": "42.23766 -8.72472", "Latitude": 42.23766, "Longitude": -8.72472, "Country": "Spain" }, "geometry": { "type": "Point", "coordinates": [ -8.72472, 42.23766 ] } },
{ "type": "Feature", "properties": { "Number": 3, "Name": "Alejandro Gálvez", "Nat": "Espagne", "Pos": "D", "Height": 1.9, "Weight": 84, "Date_of_Birth": "06-06-89", "Birth_Place": "Granada", "Previous_Club": "Werder Bremen", "Current_Club": "Sociedad Deportiva Eibar", "Coordinate": "37.18302 -3.602192", "Latitude": 37.18302, "Longitude": -3.602192, "Country": "Spain" }, "geometry": { "type": "Point", "coordinates": [ -3.602192, 37.18302 ] } },
{ "type": "Feature", "properties": { "Number": 4, "Name": "Iván Ramis", "Nat": "Espagne", "Pos": "D", "Height": 1.88, "Weight": 82, "Date_of_Birth": "25-10-84", "Birth_Place": "Sa Pobla", "Previous_Club": "Levante", "Current_Club": "Sociedad Deportiva Eibar", "Coordinate": "39.769939 3.02501", "Latitude": 39.769939, "Longitude": 3.02501, "Country": "Spain" }, "geometry": { "type": "Point", "coordinates": [ 3.02501, 39.769939 ] } },
{ "type": "Feature", "properties": { "Number": 5, "Name": "Gonzalo Escalante", "Nat": "Argentine", "Pos": "M", "Height": 1.82, "Weight": 76, "Date_of_Birth": "27-03-93", "Birth_Place": "Bella Vista", "Previous_Club": "Catania", "Current_Club": "Sociedad Deportiva Eibar", "Coordinate": "-61.823129", "Latitude": -20.615632, "Longitude": -41.207497, "Country": "Spain" }, "geometry": { "type": "Point", "coordinates": [ -41.207497, -20.615632 ] } },
{ "type": "Feature", "properties": { "Number": 6, "Name": "Cristian Rivera", "Nat": "Espagne", "Pos": "M", "Height": 1.9, "Weight": 80, "Date_of_Birth": "09-07-97", "Birth_Place": "Gijón", "Previous_Club": "Oviedo", "Current_Club": "Sociedad Deportiva Eibar", "Coordinate": "43.545039 -5.662644", "Latitude": 43.545039, "Longitude": -5.662644, "Country": "Spain" }, "geometry": { "type": "Point", "coordinates": [ -5.662644, 43.545039 ] } },
{ "type": "Feature", "properties": { "Number": 7, "Name": "Ander Capa", "Nat": "Espagne", "Pos": "D", "Height": 1.73, "Weight": 70, "Date_of_Birth": "14-05-92", "Birth_Place": "Portugalete", "Previous_Club": "Eibar B", "Current_Club": "Sociedad Deportiva Eibar", "Coordinate": "43.31908 -3.020112", "Latitude": 43.31908, "Longitude": -3.020112, "Country": "Spain" }, "geometry": { "type": "Point", "coordinates": [ -3.020112, 43.31908 ] } },
{ "type": "Feature", "properties": { "Number": 8, "Name": "Takashi Inui", "Nat": "Japon", "Pos": "M", "Height": 1.69, "Weight": 59, "Date_of_Birth": "02-06-88", "Birth_Place": "Shiga", "Previous_Club": "Eintracht Frankfurt", "Current_Club": "Sociedad Deportiva Eibar", "Coordinate": "35.247154 136.109385", "Latitude": 35.247154, "Longitude": 136.109385, "Country": "Spain" }, "geometry": { "type": "Point", "coordinates": [ 136.109385, 35.247154 ] } },
{ "type": "Feature", "properties": { "Number": 9, "Name": "Sergi Enrich", "Nat": "Espagne", "Pos": "F", "Height": 1.81, "Weight": 77, "Date_of_Birth": "26-02-90", "Birth_Place": "Ciutadella", "Previous_Club": "Numancia", "Current_Club": "Sociedad Deportiva Eibar", "Coordinate": "40.000677 3.835597", "Latitude": 40.000677, "Longitude": 3.835597, "Country": "Spain" }, "geometry": { "type": "Point", "coordinates": [ 3.835597, 40.000677 ] } },
{ "type": "Feature", "properties": { "Number": 11, "Name": "Rubén Peña", "Nat": "Espagne", "Pos": "M", "Height": 1.7, "Weight": 65, "Date_of_Birth": "18-07-91", "Birth_Place": "Ávila", "Previous_Club": "Leganés", "Current_Club": "Sociedad Deportiva Eibar", "Coordinate": "40.656478 -4.700217", "Latitude": 40.656478, "Longitude": -4.700217, "Country": "Spain" }, "geometry": { "type": "Point", "coordinates": [ -4.700217, 40.656478 ] } },
{ "type": "Feature", "properties": { "Number": 13, "Name": "Asier Riesgo", "Nat": "Espagne", "Pos": "G", "Height": 1.85, "Weight": 70, "Date_of_Birth": "06-10-83", "Birth_Place": "Deba", "Previous_Club": "Osasuna", "Current_Club": "Sociedad Deportiva Eibar", "Coordinate": "10.210088 11.387028", "Latitude": 10.210088, "Longitude": 11.387028, "Country": "Spain" }, "geometry": { "type": "Point", "coordinates": [ 11.387028, 10.210088 ] } },
{ "type": "Feature", "properties": { "Number": 14, "Name": "Dani García", "Nat": "Espagne", "Pos": "M", "Height": 1.8, "Weight": 75, "Date_of_Birth": "24-05-90", "Birth_Place": "Zumarraga", "Previous_Club": "Real Sociedad B", "Current_Club": "Sociedad Deportiva Eibar", "Coordinate": "11.676069 124.855103", "Latitude": 11.676069, "Longitude": 124.855103, "Country": "Spain" }, "geometry": { "type": "Point", "coordinates": [ 124.855103, 11.676069 ] } },
{ "type": "Feature", "properties": { "Number": 15, "Name": "Mauro Dos Santos", "Nat": "Argentine", "Pos": "D", "Height": 1.8, "Weight": 76, "Date_of_Birth": "07-07-89", "Birth_Place": "Lomas de Zamora", "Previous_Club": "Almería", "Current_Club": "Sociedad Deportiva Eibar", "Coordinate": "-93.159405", "Latitude": -34.757368, "Longitude": -58.402037, "Country": "Spain" }, "geometry": { "type": "Point", "coordinates": [ -58.402037, -34.757368 ] } },